Class,Inherited_class,Structure_name,Crater_field,Region,Country,Continent/Ocean,Lat,Lon,Diameter_final_rim_km,Diameter_present-day_km,Diameter_outer_limit_of_deformation_km,Diameter_km,DiameterSQL_km,Age_Ma,Younger_age_limit_Ma,Best_age_Ma,Older_age_limit_Ma,Age_uncert_Ma,Age_uncert_type,Overburden_m,Present_water_depth_m,Drilled,Target,Target_water_depth_m,Impactor,,,,,,,,,,,
0,-,Acraman,-,South Australia,Australia,Australia,-32.02,135.45,85-90,30,-,85-90,85,~580,570,580,590,10,stratigraphic,0,0,-,I,-,chondrite,,,,,,,,,,,
0,-,Alamo (=Tempiute),-,-,USA,North America,37.60,-115.34,44-65,-,-,44-65,55,382.1 ± 3,379.1,382.1,385.1,3,95% conf.,0,0,-,"W, Scs",-,-,,,,,,,,,,,
0,-,Amelia Creek,-,Northern Territory,Australia,Australia,-20.85,134.88,-,20x12,-,20x12,16,1815-600,600,-,1815,-,stratigraphic,0,0,N,"Ss, I",-,-,,,,,,,,,,,
0,-,Ames,-,Oklahoma,USA,North America,36.25,-98.20,-,16,-,16,16,445-456,445,-,456,-,biostratigraphic,2750,0,Y,"Ssc, I",<500,-,,,,,,,,,,,
0,-,Amguid,-,-,Algeria,Africa,26.0876,4.3951,0.49x0.54,-,-,0.49x0.54,0.515,<0.1,-,-,0.1,-,geomorphologic,0,0,N,Ss,0,-,,,,,,,,,,,
0,-,Aorounga,-,-,Chad,Africa,19.09,19.24,16,13,16,16,16,385-0.5,0.5,-,385,-,stratigraphic,0,0,N,Ss,-,-,,,,,,,,,,,
0,-,Aouelloul,-,-,Mauritania,Africa,20.2413,-12.6745,0.39,0.39,-,0.39,0.39,3.0 ± 0.3,2.7,3,3.3,0.3, 1or 2 σ,0,0,N,"Ss, M",0,iron,,,,,,,,,,,
0,x,Araguainha,-,-,Brazil,South America,-16.811,-52.990,-,-,-,40,40,~246,221.4,246,270.6,-,10%,0,-,N,-,-,-,,,,,,,,,,,
0,-,Avak,-,Alaska,USA,North America,71.233,-156.483,12,12,-,12,12,"110-3, likely ~90",3,90,110,-,stratigraphic,30,0,Y,"Ssc, M",0-500,-,,,,,,,,,,,
0,x,B.P. Structure,-,-,Libya,Africa,25.3192,24.3099,-,-,-,2,2,< 120,-,-,120,-,-,0,-,N,-,-,-,,,,,,,,,,,
0,x,Barringer,-,Arizona,USA,North America,35.0274,-111.0227,-,-,-,1.186,1.186,0.049 ± 0.003,0.046,0.049,0.052,0.003,-,0,-,Y,-,-,iron IA,,,,,,,,,,,
0,x,Beaverhead,-,Montana,USA,North America,44.64,-113.00,-,-,-,60,60,~ 600,540,600,660,-,10%,0,-,N,-,-,-,,,,,,,,,,,
0,-,Beyenchime-Salaaty,-,-,Russia,Asia,71.058,121.692,8,8,-,8,8,Cenozoic,0,-,65.5,-,stratigraphic,0,0,N,Scs,-,-,,,,,,,,,,,
0,-,Bigach,-,-,Kazakhstan,Asia,48.5774,82.0287,8,8,-,8,8,5 ± 3,2,5,8,3,-,0,0,Y,Iss,-,-,,,,,,,,,,,
0,-,Bloody Creek,-,Nova Scotia,Canada,North America,44.7500,-65.2431,-,0.35x0.42,-,0.35x0.42,0.4,"372-0.012, Plio-pleistocene?",0.012,-,372,-,stratigraphic,0,<10,N,"G?, I",0,-,,,,,,,,,,,
0,-,Boltysh,-,-,Ukraine,Europe,48.950,32.285,-,24,-,24,24,65.17 ± 0.64,64.53,65.17,65.81,0.64,95% conf.,30,0,Y,IM,0,-,,,,,,,,,,,
0,x,Bosumtwi (= Ashanti),-,Ashanti,Ghana,Africa,6.50,-1.42,-,-,-,10.5,10.5,1.07,0.963,1.07,1.177,-,10%,0,-,N,-,-,Iron / non chondrite carbonaceous?,,,,,,,,,,,
0,-,Boxhole,-,Northern Territory,Australia,Australia,-22.61265,135.19544,-,-,-,0.17-0.19,0.18,~0.03,0.027,0.03,0.033,-,10%,0,0,N,"M, Ss",0,iron IIIA,,,,,,,,,,,
0,x,Brent,-,Ontario,Canada,North America,46.08,-78.48,-,-,-,3.8,3.8,396 ± 20,376,396,416,20,-,buried,-,Y,-,-,chondrite ordinary L or LL,,,,,,,,,,,
0,x,Campo Del Cielo,Campo Del Cielo,-,Argentina,South America,-27.63,-61.70,-,-,-,0.05,0.05,< 0.004,-,-,0.004,-,-,0,-,Y,-,-,-,,,,,,,,,,,
0,-,Carancas,-,Desaguadero,Peru,South America,-16.66450,-69.04411,0.013-0.014,-,-,0.013-0.014,13.5,"15 September 2007, ~16:45 UTC ",-,0.000001,-,-,observed,0,0,-,Ss,0,chondrite ordinary H5(4),,,,,,,,,,,
0,x,Carswell,-,Saskatchewan,Canada,North America,58.45,-109.50,-,-,-,39,39,115 ± 10,105,115,125,10,-,0,-,Y,-,-,-,,,,,,,,,,,
0,x,Charlevoix (=La Malbaie),-,Quebec,Canada,North America,47.53,-70.30,-,-,-,54,54,342 ± 15,327,342,357,15,-,0,-,Y,-,-,-,,,,,,,,,,,
0,-,Chesapeake Bay,-,Virginia,USA,North America,37.25,-76.02,85-90,85-90,160,85-90,87,35.5 ± 0.3,35.2,35.5,35.8,0.3,-,300-500,-,Y,"M, Ss",300,-,,,,,,,,,,,
0,-,Chicxulub,-,Yucatan,Mexico,North America,21.3,-89.5,150.0,-,250.0,150,150,65.95 ± 0.055,65.895,65.95,66.005,0.055,"Ar/Ar, astronomical",1000,0-100,Y,"I, M,Ssce",<200,chondrite C,,,,,,,,,,,
0,x,Chiyli,-,-,Kazakhstan,Asia,49.17,57.85,-,-,-,5.5,5.5,46 ± 7,39,46,53,7,-,0,-,Y,-,-,-,,,,,,,,,,,
0,x,Chukcha,-,-,Russia,Asia,75.70,97.80,-,-,-,6,6,< 70,-,-,70,-,-,0,-,Y,-,-,-,,,,,,,,,,,
0,x,Clearwater East,-,Quebec,Canada,North America,56.08,-74.12,-,-,-,26,26,290 ± 20,270,290,310,20,-,0,-,Y,-,-,chonndrite LL,,,,,,,,,,,
0,x,Clearwater West,-,Quebec,Canada,North America,56.22,-74.50,-,-,-,36,36,290 ± 20,270,290,310,20,-,0,-,Y,-,-,-,,,,,,,,,,,
0,-,Cloud Creek,-,Wyoming,USA,North America,43.1767,-106.7083,-,7,-,7,7,190 ±20,170,190,210,20,stratigraphic,1200,0,Y,"Ssce, I",0,-,,,,,,,,,,,
0,x,Connolly Basin,-,Western Australia,Australia,Australia,-23.533,124.760,-,-,-,9,9,Palaeogene?,-,-,65,-,-,0,0,N,-,-,-,,,,,,,,,,,
0,x,Couture (= Lac Couture),-,Quebec,Canada,North America,60.13,-75.33,-,-,-,8,8,430 ± 25,405,430,455,25,-,0,-,N,-,-,-,,,,,,,,,,,
0,x,Crooked Creek,-,Missouri,USA,North America,37.83,-91.38,-,-,-,7,7,320 ± 80,240,320,400,80,-,0,-,N,-,-,-,,,,,,,,,,,
0,-,Dalgaranga,-,Western Australia,Australia,Australia,-27.66667,117.29167,0.024,-,-,0.024,0.024,<0.003,-,-,0.003,-,geomorphologic,0,0,N,"I,Ss",0,Stony-iron mesosiderite,,,,,,,,,,,
0,x,Decaturville,-,Missouri,USA,North America,37.90,-92.72,-,-,-,6,6,Pennsylvanian-mid Permian,261,-,319,-,"paleomagnetic, stratigraphic",0,-,Y,-,-,-,,,,,,,,,,,
0,x,Deep Bay,-,Saskatchewan,Canada,North America,56.406,-102.990,-,-,-,13,13,99 ± 4,95,99,103,4,-,buried,-,Y,-,-,-,,,,,,,,,,,
0,x,Dellen,-,-,Sweden,Europe,61.83,16.75,-,-,-,19,19,89.0 ± 2.7,86.3,89,91.7,2.7,2σ,0,-,N,-,-,-,,,,,,,,,,,
0,x,Des Plaines,-,Illinois,USA,North America,42.05,-87.87,-,-,-,8,8,< 280,-,-,280,-,-,buried,-,Y,-,-,-,,,,,,,,,,,
0,-,Dhala,-,Madhya Pradesh,India,Asia,25.29992,78.13419,>11,11,-,>11,11,1600-2150,1600,-,2150,-,stratigraphic,0,0,Y,"I, M",-,-,,,,,,,,,,,
0,x,Dobele,-,-,Latvia,Europe,56.58,23.25,-,-,-,4.5,4.5,Carboniferous-Permian,359.2,-,251,-,stratigraphic,25,0,Y,Scs,-,-,,,,,,,,,,,
0,x,Eagle Butte,-,Alberta,Canada,North America,49.70,-110.50,-,-,-,11,11,< 65,-,-,65,-,-,buried,-,Y,-,-,-,,,,,,,,,,,
0,x,Elbow,-,Saskatchewan,Canada,North America,50.98,-106.72,-,-,-,8,8,395 ± 25,370,395,420,25,-,buried,-,Y,-,-,-,,,,,,,,,,,
0,x,El'gygytgyn,-,-,Russia,Asia,67.50,172.08,-,-,-,18,18,3.5 ± 0.5,3,3.5,4,0.5,-,0,-,N,-,-,-,,,,,,,,,,,
0,-,Eltanin,-,-,-,Southern Ocean,-57.3,-90.5,15-40,-,-,15-40,32.5,2.511 ± 0.07 ,2.441,2.511,2.581,0.07,"biostratigraphic, magnetostratigraphic",0,5000,Y,W,5000,mesosiderite (low Fe),,,,,,,,,,,
0,-,Flaxman,-,-,Australia,Australia,-34.62,139.07,-,10x1,-,10x1,10,501-28.4,28.4,-,501,-,stratigraphic,0,0,N,"M, I",-,-,,,,,,,,,,,
0,x,Flynn Creek,-,Tennessee,USA,North America,36.28,-85.67,-,-,-,3.8,3.8,360 ± 20,340,360,380,20,-,0,-,Y,-,-,-,,,,,,,,,,,
0,-,Foelsche,-,Northern Territory,Australia,Australia,-16.669,136.783,-,6,-,6,6,Neoproterozoic,542,-,1000,-,-,buried,0,N,-,-,-,,,,,,,,,,,
0,x,Gardnos,-,-,Norway,Europe,60.67,9.00,-,-,-,5,5,~546,500,546,650,-,"stratigraphic, U/Pb",0,-,N,-,-,-,,,,,,,,,,,
0,x,Glasford,-,Illinois,USA,North America,40.60,-89.78,-,-,-,4,4,< 430,-,-,430,-,-,buried,-,Y,-,-,-,,,,,,,,,,,
0,-,Glikson,-,-,Australia,Australia,-23.98,121.57,-,19,-,19,19,<508,-,-,508,-,-,0,0,N,"Ss, I",-,-,,,,,,,,,,,
0,x,Glover Bluff,-,Wisconsin,USA,North America,43.97,-89.53,-,-,-,8,8,< 500,-,-,500,-,-,0,-,Y,-,-,-,,,,,,,,,,,
0,-,Goat Paddock,-,Western Australia,Australia,Australia,-18.333,126.674,-,5.8x6.3,-,5.8x6.3,6,Early Eocene (Ypresian),48.4,-,56.0,-,biostratigraphic,0,0,Y,Ssc,-,-,,,,,,,,,,,
0,-,Gosses Bluff,-,Northern Territory,Australia,Australia,-23.819,132.308,24,-,-,24,24,~143,121.6,143,164.5,-,15%,0,0,Y,Sse,-,-,,,,,,,,,,,
0,x,Gow,-,Saskatchewan,Canada,North America,56.45,-104.48,-,-,-,4,4,< 250,-,-,250,-,-,0,-,N,-,-,-,,,,,,,,,,,
0,-,Goyder,-,Northern Territory,Australia,Australia,-13.475,135.042,7-25,3,-,7-25,16,145-1400,145,-,1400,-,stratigraphic,0,0,N,Ss,-,-,,,,,,,,,,,
0,-,Granby,-,-,Sweden,Europe,58.426,14.933,2,2,-,~2,2,~467,462,467,472,5,biostratigraphic,Oct-40,0,Y,"Ssc, I, M",25-75,-,,,,,,,,,,,
0,-,Gweni-Fada,-,-,Chad,Africa,17.42,21.75,21-23,-,-,21-23,22,<385,-,-,385,-,-,0,0,N,Ssc,-,-,,,,,,,,,,,
0,x,Haughton,-,Nunavut,Canada,North America,75.37,-89.68,-,-,-,23,23,39,-,-,-,-,-,0,-,N,-,-,-,,,,,,,,,,,
0,x,Haviland,-,Kansas,USA,North America,37.58,-99.17,-,-,-,0.015,0.015,< 0.001,-,-,0.001,-,-,0,-,N,-,-,-,,,,,,,,,,,
0,x,Henbury,Henbury,Northern Territory,Australia,Australia,-24.57,133.13,-,-,-,0.18,0.18,0.0042 ± 0.0019,0.0023,0.0042,0.0061,-,10%,0,-,N,-,-,iron IIIA,,,,,,,,,,,
0,x,Holleford,-,Ontario,Canada,North America,44.47,-76.63,-,-,-,2.35,2.35,550 ± 100,450,550,650,100,-,buried,-,Y,-,-,-,,,,,,,,,,,
0,x,Ile Rouleau,-,Quebec,Canada,North America,50.68,-73.88,-,-,-,4,4,< 300,-,-,300,-,-,0,-,N,-,-,-,,,,,,,,,,,
0,x,Ilyinets,-,-,Ukraine,Europe,49.12,29.10,-,-,-,7.5,7.5,445 ± 10,435,445,455,10,-,buried,-,Y,-,-,-,,,,,,,,,,,
0,x,Iso-Naakkima,-,-,Finland,Europe,62.18,27.15,-,-,-,3,3,>1000,-,-,1000,-,-,buried,-,Y,-,-,-,,,,,,,,,,,
0,-,Jänisjärvi,-,Karelia,Russia,Europe,61.97,30.96,18,-,-,18,18,682 ± 4,678,682,686,4,"2σ, Ar isotopic",0,0,N,"Ss, M, I",0,chondrite H,,,,,,,,,,,
0,-,Jebel Waqf as Suwwan,-,-,Jordan,Asia,31.047,36.807,5.5,-,-,5.5,5.5,middle Eocene or younger,0,-,48.6,-,stratigraphic,0,0,-,Ssc,-,-,,,,,,,,,,,
0,x,Kaalijärv,Kaalijärv,-,Estonia,Europe,58.40,22.67,-,-,-,0.11,0.11,385±35 y BC,0.002355,0.00239,0.002425,0.000035,-,0,-,N,-,-,iron IA,,,,,,,,,,,
0,x,Kalkkop,-,-,South Africa,Africa,-32.72,24.57,-,-,-,0.64,0.64,0.250 ± 0.050,0.2,0.25,0.3,0.05,-,0,-,Y,-,-,-,,,,,,,,,,,
0,x,Kaluga,-,-,Russia,Europe,54.50,36.20,-,-,-,15,15,380 ± 5,375,380,385,5,-,buried,-,Y,-,-,-,,,,,,,,,,,
0,-,Kamensk,-,-,Russia,Europe,48.37,40.49,-,20-22,-,20-22,21,49-70,49,-,70,-,"biostratigraphic, Ar isotopic",buried,0,Y,Ssc,<500,-,,,,,,,,,,,
0,x,Kara,-,-,Russia,Europe,69.10,64.26,-,-,-,65,65,70.3 ± 2.2,68.1,69,72.5,-,"2σ, stratigraphic",buried,-,Y,-,-,-,,,,,,,,,,,
0,x,Kara-Kul,-,-,Tajikistan,Asia,39.02,73.45,-,-,-,52,52,< 5,-,-,5,-,-,0,-,N,-,-,-,,,,,,,,,,,
0,x,Kärdla,-,-,Estonia,Europe,58.98,22.77,-,-,-,4,4,~ 455,409.5,455,500.5,-,10%,buried,-,Y,-,-,-,,,,,,,,,,,
0,x,Karikkoselkä,-,-,Finland,Europe,62.222,25.245,-,-,-,3,3,450-440,440,-,450,-,-,0,-,-,-,-,-,,,,,,,,,,,
0,x,Karla,-,-,Russia,Europe,54.92,48.03,-,-,-,10,10,5 ± 1,4,5,6,1,-,0,-,Y,-,-,-,,,,,,,,,,,
0,-,Kelly West,-,Northern Territory,Australia,Australia,-19.9283,133.9535,8-20,-,-,8-20,14,507-1700,507,-,1700,-,stratigraphic,0-100s,0,N,Ss,-,-,,,,,,,,,,,
0,x,Kentland,-,Indiana,USA,North America,40.75,-87.40,-,-,-,13,13,< 97,-,-,97,-,-,0,-,Y,-,-,-,,,,,,,,,,,
0,x,Keurusselkä,-,-,Finland,Europe,62.13,24.60,-,-,-,30,30,<1800,-,-,1800,-,-,0,-,N,-,-,-,,,,,,,,,,,
0,x,Kgagodi,-,-,Botswana,Africa,-22.48,27.58,-,-,-,3.5,3.5,< 180,-,-,180,-,-,0,-,Y,-,-,-,,,,,,,,,,,
0,-,Kunya-Urgench,-,-,Turkmenistan,Asia,42.25,59.20,0.006,-,-,0.006,0.006,20-Jun-98,-,0.000007,-,-,na,0,0,N,Ss,0,chondrite H5,,,,,,,,,,,
0,x,Kursk,-,-,Russia,Europe,51.70,36.00,-,-,-,6,6,250 ± 80,170,250,330,80,-,buried,-,Y,-,-,-,,,,,,,,,,,
0,x,La Moinerie,-,Quebec,Canada,North America,57.43,-66.62,-,-,-,8,8,400 ± 50,350,400,450,50,-,0,-,N,-,-,-,,,,,,,,,,,
0,x,Lappajärvi,-,-,Finland,Europe,63.17,23.67,-,-,-,23,23,73.3 ± 5.3,76.9,77.3,77.7,0.4,-,0,-,Y,-,-,non chondrite carbonaceous,,,,,,,,,,,
0,-,Lawn Hill,-,Queensland,Australia,Australia,-18.682,138.650,20,18,-,20,20,1540-501,501,-,1540,-,-,0,0,N,Ss,-,-,,,,,,,,,,,
0,x,Lockne,-,-,Sweden,Europe,63.00,14.82,-,-,-,7.5,7.5,455,409.5,455,500.5,-,10%,0,-,Y,-,-,chondrite L,,,,,,,,,,,
0,x,Logancha,-,-,Russia,Asia,65.52,95.93,-,-,-,20,20,40 ± 20,20,40,60,20,-,buried,-,N,-,-,-,,,,,,,,,,,
0,x,Logoisk,-,-,Belarus,Europe,54.20,27.80,-,-,-,20,20,30 ± 1,29,30,31,1,2σ,buried,-,Y,-,-,-,,,,,,,,,,,
0,x,Lonar,-,-,India,Asia,19.97,76.52,-,-,-,1.83,1.83,0.052 ± 0.006,0.046,0.052,0.058,0.006,-,0,-,Y,-,-,chondrite,,,,,,,,,,,
0,x,Lumparn,-,-,Finland,Europe,60.145,20.130,-,-,-,5,5,440-460,440,-,460,-,-,buried,-,Y,-,-,-,,,,,,,,,,,
0,x,Macha,Macha,-,Russia,Asia,60.10,117.58,-,-,-,0.3,0.3,< 0.007,-,-,0.007,-,-,0,-,N,-,-,iron,,,,,,,,,,,
0,x,Manicouagan,-,Quebec,Canada,North America,51.38,-68.70,-,-,-,100,100,214 ± 1,213,214,215,1,-,0,-,Y,-,-,-,,,,,,,,,,,
0,x,Manson,-,Iowa,USA,North America,42.58,-94.55,-,-,-,35,35,74.1± 0.1,74,74.1,74.2,0.1,-,buried,-,Y,-,-,-,,,,,,,,,,,
0,x,Maple Creek (= White Valley),-,Saskatchewan,Canada,North America,49.800,-109.108,-,-,-,6,6,< 75,-,-,75,-,-,buried,-,Y,-,-,-,,,,,,,,,,,
0,-,Marquez,-,Texas,USA,North America,31.283,-96.295,13,-,-,13,13,58.3 ± 3.1,55.2,58.3,61.4,3.1,"radiometric, stratigraphic",buried,0,Y,Ssc,0-10,-,,,,,,,,,,,
0,x,Middlesboro,-,Kentucky,USA,North America,36.62,-83.73,-,-,-,6,6,< 300,-,-,300,-,-,0,-,Y,-,-,-,,,,,,,,,,,
0,x,Mien,-,-,Sweden,Europe,56.42,14.87,-,-,-,9,9,121.0 ± 2.3,118.7,121,123.3,2.3,-,0,-,Y,-,-,-,,,,,,,,,,,
0,x,Mishina Gora,-,-,Russia,Europe,58.72,28.05,-,-,-,4,4,300 ± 50,250,300,350,50,-,0,-,Y,-,-,-,,,,,,,,,,,
0,x,Mistastin,-,Newfoundland/Labrador,Canada,North America,55.88,-63.30,-,-,-,28,28,36.4 ± 4,32.4,36.4,40.4,4,-,0,-,N,-,-,-,,,,,,,,,,,
0,x,Mizarai,-,-,Lithuania,Europe,54.02,23.90,-,-,-,5,5,500 ± 20,480,500,520,20,-,buried,-,Y,-,-,-,,,,,,,,,,,
0,x,Mjølnir,-,-,Norway,Europe,73.80,29.67,-,-,-,40,40,143.1 ± 3.6,139.5,143.1,146.7,3.6,-,buried,-,Y,-,-,-,,,,,,,,,,,
0,-,Montagnais,-,Nova Scotia,Canada,North America,42.88,-64.22,-,-,-,45,45,50.5 ± 1.6,48.9,50.5,52.1,1.6,2σ,653,113,Y,"W, Sse, M",200-600,comet or achondrite,,,,,,,,,,,
0,x,Monturaqui,-,-,Chile,South America,-23.93,-68.28,-,-,-,0.46,0.46,< 1,-,-,1,-,-,0,-,N,-,-,iron IA?,,,,,,,,,,,
0,x,Morasko,Morasko,-,Poland,Europe,52.48,16.90,-,-,-,0.1,0.1,< 0.01,-,-,0.01,-,-,0,-,N,-,-, iron IIIC,,,,,,,,,,,
0,-,Morokweng,-,-,South Africa,Africa,-26.47,23.53,-,~70,-,~70,70,145.2 ± 0.8,144.4,145.2,146,0.8,2σ,0-100,0,Y,"I, M, Ss",-,chondrite LL,,,,,,,,,,,
0,x,Mount Toondina,-,South Australia,Australia,Australia,-27.95,135.37,-,-,-,4,4,< 110,-,-,110,-,-,0,-,N,-,-,-,,,,,,,,,,,
0,x,Neugrund,-,-,Estonia,Europe,59.33,23.67,-,-,-,7,7,~540,486,540,594,-,10%,buried,-,-,-,-,-,,,,,,,,,,,
0,x,"New Quebec (Chubb, Ungava, Pingualuit)",-,Quebec,Canada,North America,61.28,-73.67,-,-,-,3.44,3.44,1.4 ± 0.1,1.3,1.4,1.5,0.1,-,0,-,N,-,-,chondrite ordinary (L?),,,,,,,,,,,
0,-,Newporte,-,North Dakota,USA,North America,48.970,-101.961,-,-,-,3.2,3.2,472-501,472,-,501,-,stratigraphic,2800,0,Y,"I, M, Ss",10-100,-,,,,,,,,,,,
0,x,Nicholson,-,Northwest Territories,Canada,North America,62.67,-102.68,-,-,-,12.5,12.5,< 400,-,-,400,-,-,buried,-,N,-,-,-,,,,,,,,,,,
0,x,Oasis,-,-,Libya,Africa,24.58,24.40,-,-,-,18,18,< 120,-,-,120,-,-,0,-,N,-,-,-,,,,,,,,,,,
0,-,Obolon,-,-,Ukraine,Europe,49.58,32.93,-,21,-,21,21,169 +16/-5.5,163.5,169,185,-,"radiometric, stratigraphic, paleogeographic",300,0,Y,"I,M,Ssc",<100,-,,,,,,,,,,,
0,-,Odessa,Odessa,Texas,USA,North America,31.75605,-102.47891,-,-,-,0.152-0.183,0.165,0.0635 ± 0.0045,0.0595,0.0635,0.05,0.004,"luminescence, stratigraphic",0,0,Y,Scs,0,iron IAB,,,,,,,,,,,
0,x,Ouarkziz,-,-,Algeria,Africa,29.00,-7.55,-,-,-,3.5,3.5,< 70,-,-,70,-,-,0,-,N,-,-,-,,,,,,,,,,,
0,-,Paasselkä,-,-,Finland,Europe,62.15,29.38,-,-,-,9x12,10.5,< ~1900,-,-,1900,-,stratigraphic,0,0,Y,"M, I, S",-,-,,,,,,,,,,,
0,x,Piccaninny,-,Western Australia,Australia,Australia,-17.420,128.436,-,-,-,7,7,< 360,-,-,360,-,-,0,-,N,-,-,-,,,,,,,,,,,
0,x,Pilot,-,Northwest Territories,Canada,North America,60.28,-111.02,-,-,-,6,6,445 ± 2,443,445,447,2,-,0,-,N,-,-,-,,,,,,,,,,,
0,-,Popigai,-,N Siberia,Russia,Asia,71.64,111.23,-,-,-,100,100,35.7 ± 0.2,35.5,35.7,35.9,0.2,2σ,0,0,Y,"I,M, Ssc",0,chondrite L,,,,,,,,,,,
0,x,Presqu'ile,-,Quebec,Canada,North America,49.72,-74.80,-,-,-,24,24,< 500,-,-,500,-,-,0,-,N,-,-,-,,,,,,,,,,,
0,x,Puchezh-Katunki,-,-,Russia,Europe,56.97,43.72,-,-,-,80,80,167 ± 3,164,167,170,3,-,buried,-,Y,-,-,-,,,,,,,,,,,
0,x,Ragozinka,-,-,Russia,Asia,58.73,61.80,-,-,-,9,9,46 ± 3,43,46,49,3,-,buried,-,Y,-,-,-,,,,,,,,,,,
0,x,Red Wing,-,North Dakota,USA,North America,47.6117,-103.5366,-,-,-,9,9,200 ± 25,175,200,225,25,-,buried,-,Y,-,-,-,,,,,,,,,,,
0,x,Riachão,-,-,Brazil,South America,-7.70,-46.63,-,-,-,4.5,4.5,< 200,-,-,200,-,-,0,-,N,-,-,-,,,,,,,,,,,
0,x,Ries,-,-,Germany,Europe,48.88,10.62,-,-,-,24,24,14.34±0.08 ,14.26,14.34,14.42,0.08,1σ,0,-,Y,-,-,-,,,,,,,,,,,
0,x,Rio Cuarto,Rio Cuarto,-,Argentina,South America,-32.87,-64.23,-,-,-,1x4.5,2.75,< 0.1,-,-,0.1,-,-,0,-,N,-,-,-,,,,,,,,,,,
0,x,Rochechouart,-,-,France,Europe,45.83,0.93,-,-,-,23,23,214 ± 8,206,214,222,8,-,0,-,N,-,-,Stony iron?,,,,,,,,,,,
0,x,Rock Elm,-,Wisconsin,USA,North America,44.72,-92.23,-,-,-,6,6,< 505,-,-,505,-,-,0,-,-,-,-,-,,,,,,,,,,,
0,-,Roter Kamm,-,-,Namibia,Africa,-27.7656,16.2897,-,-,-,2.5,2.5,4-5,4,-,5,-,-,0,0,N,"M, S",0,Chondrite enstatite or ordinary,,,,,,,,,,,
0,-,Rotmistrovka,-,-,Ukraine,Europe,49.192,31.750,-,3,-,3,3,125 ± 20,105,125,145,20,stratigraphic,100,0,Y,I,0,-,,,,,,,,,,,
0,x,Sääksjärvi,-,-,Finland,Europe,61.42,22.38,-,-,-,5,5,514±12,502,514,526,12,-,0,-,Y,-,-,Stony iron?,,,,,,,,,,,
0,x,Saarijärvi,-,-,Finland,Europe,65.28,28.38,-,-,-,3.4,3.4,> 600,600,-,-,-,-,-,-,Y,-,-,-,,,,,,,,,,,
0,x,Saint Martin,-,Manitoba,Canada,North America,51.78,-98.53,-,-,-,40,40,220 ± 32,188,220,252,32,-,buried,-,Y,-,-,-,,,,,,,,,,,
0,-,Santa Fe,-,New Mexico,USA,North America,35.728277,-105.85966,-,-,-,6-13,9.5,"post-Grenvillian, possibly pre-Pennsylvanian (Mississippian)",0,-,1200,-,stratigraphic,0,0,-,"M, I",-,-,,,,,,,,,,,
0,x,Serpent Mound,-,Ohio,USA,North America,39.035,-83.419,-,-,-,8,8,>256 +25/-22,281,-,-,-,-,0,-,Y,-,-,-,,,,,,,,,,,
0,x,Serra da Cangalha,-,-,Brazil,South America,-8.07,-46.85,-,-,-,12,12,< 300,-,-,300,-,-,0,-,Y,-,-,-,,,,,,,,,,,
0,x,Shoemaker (formerly Teague),-,Western Australia,Australia,Australia,-25.87,120.88,-,-,-,30,30,1300-568,568,-,1300,-,-,0,-,N,-,-,-,,,,,,,,,,,
0,x,Shunak,-,-,Kazakhstan,Asia,47.20,72.70,-,-,-,2.8,2.8,45 ± 10,35,45,55,10,-,0,-,Y,-,-,-,,,,,,,,,,,
0,x,Sierra Madera,-,Texas,USA,North America,30.60,-102.92,-,-,-,12-16,14,< 100,-,-,100,-,-,0,0,Y,-,-,-,,,,,,,,,,,
0,-,Sikhote Alin,Sikhote Alin,-,Russia,Asia,46.1608,134.6533,0.0265,-,-,0.0265,0.0265,12-Feb-47,-,0.000058,-,-,-,0,0,N,-,0,iron IIAB,,,,,,,,,,,
0,x,Siljan,-,-,Sweden,Europe,61.03,14.87,-,-,-,80,80,377 ± 2,375,377,379,2,95% conf.,0,-,Y,-,-,-,,,,,,,,,,,
0,x,Slate Islands,-,Ontario,Canada,North America,48.67,-87.00,-,-,-,30,30,436 ±3,433,436,439,3,-,0,-,N,-,-,-,,,,,,,,,,,
0,x,Sobolev,-,-,Russia,Asia,46.30,137.87,-,-,-,0.053,0.053,< 0.001,-,-,0.001,-,-,0,-,Y,-,-,-,,,,,,,,,,,
0,x,Söderfjärden,-,-,Finland,Europe,63.03,21.58,-,-,-,5.5,5.5,540-520,520,-,540,-,-,buried,-,Y,-,-,-,,,,,,,,,,,
0,x,Spider,-,Western Australia,Australia,Australia,-16.73,126.08,-,-,-,13x11,12,pre-Cambrian,541,-,-,-,-,0,-,N,-,-,-,,,,,,,,,,,
0,x,Steen River,-,Alberta,Canada,North America,59.50,-117.63,-,-,-,25,25,91± 7,84,91,98,7,-,buried,-,Y,-,-,-,,,,,,,,,,,
0,x,Steinheim,-,-,Germany,Europe,48.68,10.07,-,-,-,3.8,3.8,15 ± 1,14,15,16,1,-,0,-,Y,-,-,-,,,,,,,,,,,
0,-,Sterlitamak,-,-,Russia,Asia,53.67,55.68,-,-,-,0.0094,0.0094,17-May-90,-,0.000015,-,-,na,0,0,-,Ss,0,Iron IIIab,,,,,,,,,,,
0,-,Strangways,-,Northern Territory,Australia,Australia,-15.195,133.585,-,-,-,24-26,25,646 ± 42,604,646,688,42,?,0,-,N,"Ss, M",?,Achondrite olivine-rich,,,,,,,,,,,
0,-,Sudbury,-,Ontario,Canada,North America,46.60,-81.18,130-180,-,260,130-180,155,1847-1852,1847,-,1852,-,radiometric,0,0,Y,M,-,meteorite,,,,,,,,,,,
0,x,Suvasvesi N,-,-,Finland,Europe,62.68,28.18,-,-,-,4,4,560-530 or 260-230,230,-,560,-,-,buried,-,Y,-,-,-,,,,,,,,,,,
0,x,Tabun-Khara-Obo,-,-,Mongolia,Asia,44.10,109.60,-,-,-,1.3,1.3,150 ± 20,130,150,170,20,-,0,-,N,-,-,-,,,,,,,,,,,
0,x,Talemzane (= Maadna),-,-,Algeria,Africa,33.32,4.03,-,-,-,1.75,1.75,< 3,-,-,3,-,-,buried,-,Y,-,-,-,,,,,,,,,,,
0,x,Tenoumer,-,-,Mauritania,Africa,22.918,-10.408,-,-,-,1.9,1.9,0.0214 ± 0.0097,0.0117,0.0214,0.0311,0.0097,-,0,-,N,-,-,chondrite LL6,,,,,,,,,,,
0,x,Ternovka,-,-,Ukraine,Europe,48.13,33.52,-,-,-,11,11,280 ± 10,270,280,290,10,-,buried,-,Y,-,-,-,,,,,,,,,,,
0,x,Tin Bider,-,-,Algeria,Africa,27.60,5.12,-,-,-,6,6,< 70,-,-,70,-,-,0,-,N,-,-,-,,,,,,,,,,,
0,-,Tookoonooka,-,Queensland,Australia,Australia,-27.10,142.80,-,-,-,55-100,77.5,133 ± 5,128,133,138,5,biostratigraphic,882,0,Y,"W, Ss, M",10-200,-,,,,,,,,,,,
0,x,Tswaing (formerly Pretoria Saltpan),-,-,South Africa,Africa,-25.40,28.08,-,-,-,1.13,1.13,0.220 ± 0.052,0.168,0.22,0.272,0.052,-,0,-,Y,-,-,-,,,,,,,,,,,
0,x,Tvären,-,-,Sweden,Europe,58.77,17.42,-,-,-,4,4,~ 457,411.3,457,502.7,-,10%,buried,-,Y,-,-,-,,,,,,,,,,,
0,-,Upheaval Dome,-,Utah,USA,North America,38.4373,-109.9284,-,-,-,10.4,10.4,post late Toarcian,-,-,183,-,stratigraphic,0,0,Y,Ss,-,-,,,,,,,,,,,
0,x,Vargeão,-,-,Brazil,South America,-26.83,-52.12,-,-,-,12,12,< 70,-,-,70,-,-,0,-,N,-,-,-,,,,,,,,,,,
0,-,Veevers,-,Western Australia,Australia,Australia,-22.96995,125.37253,0.07,0.07,-,0.07,0.07,< 4 ka,-,-,0.004,-,geomorphologic,0,0,N,Ss,0,Iron IIAB,,,,,,,,,,,
0,x,Vepriai,-,-,Lithuania,Europe,55.08,24.58,-,-,-,8,8,?,-,-,-,-,-,buried,-,Y,-,-,-,,,,,,,,,,,
0,x,Vista Alegre ,-,-,Brazil,South America,-25.95,-52.68,-,-,-,9.5,9.5,< 65,-,-,65,-,-,0,-,N,-,-,-,,,,,,,,,,,
0,-,Vredefort,-,-,South Africa,Africa,-27.00,27.50,120-200 ,-,180-300,120-200 ,300,2023 ± 4,2019,2023,2027,4,2σ radiometric,0,0,Y,"M, I, Ssc",-,-,,,,,,,,,,,
0,-,Wabar,Wabar,-,Saudi Arabia,Asia,21.503,50.473,-,-,-,0.116,0.116,0.000290 ± 0.000076,0.000214,0.00029,0.000366,0.000076,2σ,0,0,N,Ss,0,Iron IIIa,,,,,,,,,,,
0,x,Wanapitei,-,Ontario,Canada,North America,46.75,-80.75,-,-,-,<5,5,37.2 ± 1.2,36,37.2,38.4,1.2,-,buried,-,N,-,-,chondrite L (possibly LL),,,,,,,,,,,
0,x,Wells Creek,-,Tennessee,USA,North America,36.38,-87.67,-,-,-,12,12,200 ± 100,100,200,300,100,-,0,-,Y,-,-,-,,,,,,,,,,,
0,x,West Hawk,-,Manitoba,Canada,North America,49.77,-95.18,-,-,-,2.44,2.44,351± 20,331,351,371,20,-,buried,-,Y,-,-,-,,,,,,,,,,,
0,x,Wetumpka,-,Alabama,USA,North America,32.52,-86.17,-,-,-,6.5,6.5,81.0 ± 1.5,79.5,81,82.5,1.5,-,0,-,Y,-,-,-,,,,,,,,,,,
0,-,Whitecourt,-,Alberta,Canada,North America,54.00,-115.60,-,-,-,0.036,0.036,~0.0011,0.00005,0.0011,0.001155,-,"stratigraphic, 14C",0,0,-,Ss,0,Iron IIIAB,,,,,,,,,,,
0,-,Wolfe Creek,-,Western Australia,Australia,Australia,-19.1717,127.7953,0.825x0.932,0.825x0.933,-,0.825x0.933,0.88,0.3,0.27,0.3,0.33,-,10%,0,0,N,Ss,0,iron IIIB,,,,,,,,,,,
0,x,Woodleigh,-,Western Australia,Australia,Australia,-26.0569,114.6639,-,-,-,40,40,364 ± 9,355,364,373,9,2σ,buried,-,Y,-,-,-,,,,,,,,,,,
0,x,Yarrabubba,-,Western Australia,Australia,Australia,-27.17,118.83,-,-,-,30-70,50,2600-542,542,-,2600,-,-,0,-,N,-,-,-,,,,,,,,,,,
0,x,Zapadnaya,-,-,Ukraine,Europe,49.73,29.00,-,-,-,3.2,3.2,165 ± 5,160,165,170,5,-,buried,-,Y,-,-,-,,,,,,,,,,,
0,-,Zeleny Gai,-,-,Ukraine,Europe,48.888,32.803,-,3.5,-,3.5,3.5,80 ± 20,60,80,100,20,Stratigraphic,50,0,Y,"I, M",0,-,,,,,,,,,,,
0,x,Zhamanshin,-,-,Kazakhstan,Asia,48.40,60.97,-,-,-,14,14,0.9 ± 0.1,0.8,0.9,1,0.1,-,0,-,Y,-,-,-,,,,,,,,,,,
1,-,Gusev,-,-,Russia,Europe,48.472,40.549,-,2x3,-,2x3,3,~49.15,44.2,49.15,54.1,-,10%,buried,0,Y,Sc,<500,-,,,,,,,,,,,
1,-,Liverpool,-,Northern Territory,Australia,Australia,-12.39590,134.04740,2.0,1.6,-,2,2,Neoproterozoic?,542,-,1000,-,stratigraphic,0,0,N,Ss,-,-,,,,,,,,,,,
1,-,Matt Wilson,-,Northern Territory,Australia,Australia,-15.50,131.18,5-10,5.50,-,5.5,5.5,"post-1500, likely pre-Cambrian, possibly ~1490",542,1490,1500,-,stratigraphic,0,0,n,"Ss, I",-,-,,,,,,,,,,,
1,-,Põrguhaud,Ilumetsä,-,Estonia,Europe,57.96003,27.40297,-,-,-,0.08,0.08,0.0059-0.0067,0.0059,-,0.0067,0.0001,"stratigraphic, C14",0,0,Y,Ss,0,-,,,,,,,,,,,
1,-,Praia Grande,-,offshore,Brazil,South America,-25.64722,-45.62500,-,-,-,20,20,Santonian,83.5,-,85.9,-,stratigraphic,4000,200,N,Ssce,-,-,,,,,,,,,,,
1,-,Silverpit,-,-,North Sea,Europe,54.23,1.85,-,-,-,5-8,6.5,45-74,45,-,74,-,stratigraphic,300,40,Y,"W, Scs",50-300,-,,,,,,,,,,,
1,-,Sirente,Sirente,Abruzzo,Italy,Europe,42.1771,13.5959,-,-,-,0.15x0.14,0.14,1689-1418 y B.P.,0.001418,-,0.001689,-,C-14 and thermoluminiscence,0,0,Y,Sc,0,iron,,,,,,,,,,,
1,-,Sügavhaud,Ilumetsä,-,Estonia,Europe,57.95381,27.39992,-,-,-,0.05,0.05,0.0059-0.0067,0.0059,-,0.0067,0.0001,"stratigraphic, C14",0,0,Y,Ss,0,-,,,,,,,,,,,
1,-,Tunguska,-,-,Russia,Asia,60.89,101.89,-,-,-,airblast,-1,30/Jun/1908,0.0001,0.0001,0.0001,-,-,0,0,Y,-,0,comet or stone,,,,,,,,,,,
2,-,Alz,Chiemgau?,Bavaria,Germany,Europe,48.23,12.78,-,-,-,0.011,0.011,"<0,015",0.0001,0.002,0.015,-,stratigraphic,0,-,-,-,-,-,,,,,,,,,,,
2,-,Ambar Lake,-,-,India,Asia,19.98,76.52,-,-,-,0.25-0.29,0.27,0.052 ± 0.007,0.045,0.052,0.059,0.007,-,0,-,-,-,-,-,,,,,,,,,,,
2,-,Arkhys,-,-,Georgia,Europe,43.60,46.32,-,-,-,2,2,Quaternary,0,-,1.8,-,stratigraphic,0,0,-,"Ss, M, I",0,-,,,,,,,,,,,
2,-,Åvikebukten,-,-,Sweden,Europe,62.47,17.75,-,-,-,9.5,9.5,<542,-,-,542,-,-,0,-,-,-,-,-,,,,,,,,,,,
2,x,AZUARA,-,-,Spain,Europe,41.118,-0.886,-,-,-,30,30,32.0 ±7.0,25,32,39,7,-,0,-,-,-,-,-,,,,,,,,,,,
2,-,Bedout,-,northwestern continental margin,Australia,Australia,-18.18,119.25,-,-,-,~180,180,250.1 ±4.5,245.6,250.1,254.6,4.5,-,buried,-,-,-,-,-,,,,,,,,,,,
2,-,Bee Bluff (=Lyles Ranch = Uvalde),-,Texas,USA,North America,29.0275,-99.8458,-,-,-,6.75,6.75,Oligocene to Pliocene,1.8,-,40,-,stratigraphic,0,-,Y,-,-,-,,,,,,,,,,,
2,-,Björkö,-,-,Sweden,Europe,59.30,17.60,-,-,-,8,8,1210.0 ±18,1192,1210,1228,18,-,-,-,-,-,-,-,,,,,,,,,,,
2,x,BORLY,-,-,Kazakhstan,Asia,47.08,74.75,-,-,-,0.2,0.2,?,-,-,-,-,-,-,-,-,-,-,-,,,,,,,,,,,
2,-,Brushy Creek,-,Louisiana,USA,North America,30.768,-90.735,-,-,-,1.9,1.9,late Pleistocene,0.115,-,0.126,-,stratigraphic,0,-,Y,-,-,-,,,,,,,,,,,
2,-,Burckle,-,-,Indian ocean,-,-30.865,61.365,-,-,-,29,29,?,-,-,-,-,-,buried,-,-,-,-,-,,,,,,,,,,,
2,-,Calvin,-,Michigan,USA,North America,41.8257,-85.9457,-,-,-,6-8,7,444-460,444,-,460,-,stratigraphic,250,0,Y,Scs,-,-,,,,,,,,,,,
2,-,Chimney Prospect,-,Montana,USA,North America,47.00,-107.60,-,-,-,3.9,3.9,Jurassic,145,-,200,-,stratigraphic,buried,-,Y,-,-,-,,,,,,,,,,,
2,x,CHINGA,-,-,Russia,Asia,51.00,94.00,-,-,-,-,-1,?,-,-,-,-,-,-,-,-,-,-,-,,,,,,,,,,,
2,x,CHINLE,-,-,USA,North America,39.15,-109.57,-,-,-,0.034,0.034,150-250 yr,0.00015,-,0.00025,-,-,-,-,-,-,-,-,,,,,,,,,,,
2,-,Colônia,-,-,Brazil,South America,-23.87,-46.70,-,-,-,3.6,3.6,~36,32.4,36,39.6,-,10%,0,-,N,-,-,-,,,,,,,,,,,
2,x,CONCEPTION BAY (= Holyrood Bay = Avalon Peninsula),-,-,Canada,North America,47.53,-52.05,-,-,-,25.0?,25,not known,-,-,-,-,-,-,-,-,-,-,-,,,,,,,,,,,
2,-,Crawford,-,-,Australia,Australia,-34.72,139.03,-,8.5x3.5,-,8.5x3.5,8.5,501-28.4,28.4,-,501,-,stratigraphic,0,0,N,"M, I",-,-,,,,,,,,,,,
2,-,Curuçá,-,-,Brazil,South America,-5.18,-71.63,-,-,-,1,1,13-Aug-30,-,0.000075,-,-,-,0,-,N,-,-,-,,,,,,,,,,,
2,-,Dakhleh,Dakhleh Oasis,Western desert,Egypt,Africa,25.4855,29.4536,-,-,-,0.4,0.4,0.1-0.2,0.1,-,0.2,-,"radiometric, stratigraphic, archeological",0,0,N,"Ssce,",-,-,,,,,,,,,,,
2,-,Darwin,-,-,Australia,Australia,-42.32,145.67,-,-,-,1.5,1.5,0.816 ± 0.007,0.809,0.816,0.823,0.007,-,0,-,Y,-,-,-,,,,,,,,,,,
2,-,Duobblon,-,-,Sweden,Europe,65.58,17.17,-,-,-,80,10,~1800,1620,1800,1980,-,10%,0,-,Y,-,-,-,,,,,,,,,,,
2,-,Duolun,-,-,China,Asia,42.05,116.25,-,-,-,70-190,190,129 ± 2,99,129,161,2,stratigraphic,0,-,Y,"Ssc, I",-,-,,,,,,,,,,,
2,-,Faya,-,Borkou-Ennedi-Tibesti,Chad,Africa,18.183,19.564,-,-,-,1.5,1.5,post Mid Devonian,-,-,385,-,stratigraphic,0,0,N,Ss,-,-,,,,,,,,,,,
2,-,Frombork,-,-,Poland,Europe,54.3433,19.6929,-,-,-,0.20x0.25,0.225,Holocene,-,-,0.01,-,stratigraphic,0,-,-,-,-,-,,,,,,,,,,,
2,-,Gagarin,-,-,Russia,Asia,55.6986,33.6669,-,-,-,1.4,1.4,?,-,-,-,-,-,0,-,Y,-,-,-,,,,,,,,,,,
2,x,GALLEJAUR,-,-,Sweden,Europe,65.10,19.30,-,-,-,60,60,1873.0 ±10,1863,1873,1883,10,-,-,-,-,-,-,-,,,,,,,,,,,
2,-,Gatun,-,-,Panama,South America,9.09947,-79.78939,-,-,-,2.72 to 3,2.85,post-Oligocene ,-,-,23,-,-,0,-,-,-,-,-,,,,,,,,,,,
2,-,Gnargoo,-,Western Australia,Australia,Australia,-23.62,114.03,-,-,-,75,75,early Permian to early Cretaceous,99,-,299,-,stratigraphic,buried,-,Y,-,-,-,,,,,,,,,,,
2,x,GUARDA,-,-,Portugal,Europe,40.62,-7.10,-,-,-,35,35,?,-,-,-,-,-,-,-,-,-,-,-,,,,,,,,,,,
2,-,Hartney,-,Manitoba,Canada,North America,49.40,-100.67,-,-,-,8,8,lower Cretaceous,99,-,146,-,-,buried,-,Y,-,-,-,,,,,,,,,,,
2,-,Hico,-,Texas,USA,North America,32.008,-98.03,-,-,-,9,9,<60.0,-,-,60,-,-,0,-,-,-,-,-,,,,,,,,,,,
2,-,Highbury,-,-,Zimbabwe,Africa,-17.0647,30.1153,-,-,-,20,20,1034.0 ±17.0,1017,1034,1051,17,-,0,-,Y,-,-,-,,,,,,,,,,,
2,-,Hotchkiss,-,-,Canada,North America,57.5389,-118.8778,-,-,-,4,4,120-330,120,-,330,-,-,buried,-,N,-,-,-,,,,,,,,,,,
2,-,Howell,-,-,USA,North America,35.232,-86.610,-,-,-,1.6,1.6,355-389,355,-,389,-,-,0,-,Y,-,-,-,,,,,,,,,,,
2,-,Hummeln,-,-,Sweden,Europe,57.37,16.25,-,-,-,1.8,1.8,460-480,460,-,480,-,-,-,-,-,-,-,-,,,,,,,,,,,
2,x,IMILAC,-,-,Chile,South America,-24.20,-68.80,-,-,-,0.008,0.008,young,-,-,20,-,-,-,-,-,-,-,-,,,,,,,,,,,
2,-,Ishim,-,Aqmola,Kazakhstan,Asia,51.700,69.800,-,-,-,300-400,350,late Ordovician to early Silurian,430,-,460,-,stratigraphic,0,0,-,"M, I, S",-,-,,,,,,,,,,,
2,-,Itturalde,-,-,Bolivia,South America,-12.50,-67.50,-,-,-,9,9,0.011-0.032,0.011,-,0.032,-,-,0,-,-,-,-,-,,,,,,,,,,,
2,-,Jackpine Creek,-,British Columbia,Canada,North America,55.60,-120.1,-,-,-,22-24,23,Lower Cretaceous,100,-,142,-,stratigraphic,buried,-,Y,-,-,-,,,,,,,,,,,
2,-,James River,-,Alberta,Canada,North America,51.913,-114.920,-,-,-,6,6,Late Cambrian to Middle Devonian,385,-,501,-,-,buried,-,N,-,-,-,,,,,,,,,,,
2,-,Jeptha Knob,-,-,USA,North America,38.18,-85.12,-,-,-,2.2,2.2,Ordovician-Silurian,428,-,461,-,stratigraphic,0,-,Y,-,-,-,,,,,,,,,,,
2,-,Jiesjaure,-,-,Norway,Europe,69.9,24.9,-,-,-,6,6,?,-,-,-,-,-,-,-,-,-,-,-,,,,,,,,,,,
2,-,Johnsonville,-,South Carolina,USA,North America,33.82,-79.36,-,-,-,11,11,200-88,88,-,200,-,stratigraphic,buried,-,Y,-,-,-,,,,,,,,,,,
2,-,Kakiattukallak,-,Quebec,Canada,North America,57.70,-71.67,-,-,-,6,6,?,-,-,-,-,-,0,-,-,-,-,-,,,,,,,,,,,
2,-,Kanmare,-,Gulf of Carpentaria,Australia,Australia,-16.58,139.057,-,-,-,18,18,?,-,-,-,-,-,-,-,-,-,-,-,,,,,,,,,,,
2,-,Kilmichael,-,-,USA,North America,33.50,-89.55,-,-,-,9,9,40-45,40,-,45,-,-,0,-,Y,-,-,-,,,,,,,,,,,
2,x,KONUS,-,-,Kazakhstan,Asia,48.55,76.60,-,-,-,0.25,0.25,?,-,-,-,-,-,-,-,-,-,-,-,,,,,,,,,,,
2,-,Kurai Basin,-,Altai,Russia,Asia,50.20,87.90,-,-,-,21-22,21.5,Jurassic to Eocene,34,-,200,-,stratigraphic,0,0,-,"Ssc, I, M",0,-,,,,,,,,,,,
2,-,La Dulce,-,-,Argentina,South America,-38.21,-59.21,-,-,-,2.8,2.8,0.445,-,0.445,-,-,radiometric,0,0,-,Ss,0,-,,,,,,,,,,,
2,x,LA PALOMA,-,-,Uruguay,South America,-34.67,-54.17,-,-,-,-,-1,?,-,-,-,-,-,-,-,-,-,-,-,,,,,,,,,,,
2,x,LAGO DI TREMORGIO,-,-,Switzerland,Europe,46.47,8.72,-,-,-,1.36,1.36,?,-,-,-,-,-,-,-,-,-,-,-,,,,,,,,,,,
2,-,Landsortsjupet,-,-,Sweden,North America,58.60,18.50,-,-,-,30,30,1200,1080,1200,1320,-,10%,-,-,-,-,-,-,,,,,,,,,,,
2,x,LDG IMPACT+B493,-,-,Libya,Africa,-,-,-,-,-,-,-1,?,-,-,-,-,-,-,-,-,-,-,-,,,,,,,,,,,
2,-,Ledfat,-,-,Sweden,Africa,65.5,18.3,-,-,-,7,7,Prot.,542,-,2500,-,-,-,-,-,-,-,-,,,,,,,,,,,
2,-,Liberty,-,Ohio,USA,North America,41.2065,-83.2785,-,-,-,0.8x1,0.9,Quaternary,-,-,1.8,-,stratigraphic,buried,-,Y,Sc,-,-,,,,,,,,,,,
2,-,Lukanga,-,-,Zambia,Africa,-14.40,27.75,-,-,-,52,52,<450,-,-,450,-,stratigraphic,0,-,Y,"Sc, M",-,-,,,,,,,,,,,
2,-,Lycksele,-,-,Sweden,Europe,64.92,18.78,-,-,-,130,130,1800-1260,1260,-,1800,-,-,0,-,-,-,-,-,,,,,,,,,,,
2,-,Magyarmecske,-,-,Hungary,Europe,45.95,17.97,-,-,-,6x8,7,post Carboniferous to pre Neogene,23,-,299,-,stratigraphic,1100,0,N,"Ss, M",-,-,,,,,,,,,,,
2,-,Meen Lake,-,Keewatin District,Canada,North America,64.97,-87.67,-,-,-,-,-1,?,-,-,-,-,-,0,-,-,-,-,-,,,,,,,,,,,
2,-,Merna,-,Nebraska,USA,North America,41.4639,-99.975,-,-,-,1.5,1.5,0.00286 ±0.00005,0.00281,0.00286,0.00291,0.00005,C14,0,0,n,Ss,0,-,,,,,,,,,,,
2,-,Mistassini,-,Quebec,Canada,North America,50.75,-73.75,-,-,-,2,2,?,-,-,-,-,-,0,-,-,-,-,-,,,,,,,,,,,
2,-,Mulkarra,-,-,Australia,Australia,-27.87,138.92,-,-,-,17,17,middle Albian,102,105,108,3,biostratigraphic,buried,-,Y,-,-,-,,,,,,,,,,,
2,-,Panther Mountain,-,New York,USA,North America,42.07,-74.40,-,-,-,10,10,Lower to Middle Devonian,385,-,416,-,stratigraphic,0,-,Y,-,-,-,,,,,,,,,,,
2,-,Pechenga,-,Kola peninsula,Russia,Asia,69.33,30.54,-,-,-,80,80,1970-1940,1940,-,1970,-,stratigraphic,0,-,Y,-,-,-,,,,,,,,,,,
2,-,Peerless ,-,Montana,USA,North America,48.8,-105.8,-,-,-,6,6,430-450,430,-,450,-,stratigraphic,buried,-,Y,-,-,-,,,,,,,,,,,
2,-,Piratininga,-,-,Brazil,South America,-22.47,-49.15,-,-,-,12,12,~117,105.3,117,128.7,0.1,-,0,-,N,-,-,-,,,,,,,,,,,
2,x,QUILLAGUA,-,-,Chile,South America,-21.5,-69.33,-,-,-,-,-1,?,-,-,-,-,-,-,-,-,-,-,-,,,,,,,,,,,
2,-,Ramgarh,-,-,India,Asia,25.333,76.625,-,-,-,2.25x2.5,2.4,not known,-,-,-,-,-,0,-,-,-,-,-,,,,,,,,,,,
2,-,Ritland,-,-,Norway,Europe,59.2335930,6.4252257,-,-,-,2,2,pre- middle Cambrian,501,-,-,-,stratigraphic,0,0,N,"M, Ss",-,-,,,,,,,,,,,
2,x,RUBIELOS DE LA CÉRIDA,-,-,Spain,Europe,40.78,-0.80,-,-,-,40,40,32 ±7.0,25,32,39,7,-,-,-,-,-,-,-,,,,,,,,,,,
2,-,Salar del Hombre Muerto,Salar del Hombre Muerto,Salta,Argentina,South America,-27.21,-69.92,-,-,-,0.25,0.25,<0.5,-,-,0.5,-,-,0,-,N,-,-,-,,,,,,,,,,,
2,-,Shiyli,-,-,Kazakhstan,Asia,49.17,57.85,-,-,-,5.5,5.5,46.00,41.4,46,50.6,-,10%,-,-,-,-,-,-,,,,,,,,,,,
2,x,SIMUNA,-,-,Estonia,Europe,58.90,25.60,-,-,-,0.0089,0.0089,1 June 1937 ?,-,0.000068,-,-,-,-,-,-,-,-,-,,,,,,,,,,,
2,-,Sinamwenda,-,-,Zimbabwe,Africa,-17.1950,27.7917,-,-,-,0.22,0.22,<220.0,-,-,220,-,-,-,-,-,-,-,-,,,,,,,,,,,
2,-,Sithylemenkat,-,Alaska,USA,North America,66.12,-151.38,-,-,-,12.4,12.4,<0.01,-,-,0.01,-,-,-,-,-,-,-,-,,,,,,,,,,,
2,-,Skedviken,-,-,Sweden,Europe,59.8,18.3,-,-,-,4.5,4.5,?,-,-,-,-,-,-,-,-,-,-,-,,,,,,,,,,,
2,-,Skeleton Lake,-,-,Canada,North America,45.25,-79.43,-,-,-,3.5,3.5,?,-,-,-,-,-,0,-,-,-,-,-,,,,,,,,,,,
2,-,Smöla,-,-,Norway,Europe,63.4,8.0,-,-,-,30,30,?,-,-,-,-,-,-,-,-,-,-,-,,,,,,,,,,,
2,-,Snelling,-,-,Australia,Australia,-19.35,127.77,-,-,-,0.029x0.022,0.0255,<0.005,-,-,0.005,-,-,-,-,-,-,-,-,,,,,,,,,,,
2,-,Sortland,-,-,Norway,Europe,68.8,15.0,-,-,-,-,-1,?,-,-,-,-,-,-,-,-,-,-,-,,,,,,,,,,,
2,-,Spring Range,-,Northern Territory,Australia,Australia,-21.8631,134.3072,-,-,-,0.5-1.0,0.75,?,-,-,-,-,-,-,-,-,-,-,-,,,,,,,,,,,
2,-,Suvasvesi S,-,-,Finland,Europe,62.68,28.30,-,-,-,3.8,3.8,?,-,-,-,-,-,-,-,-,-,-,-,,,,,,,,,,,
2,-,Tabban ,-,Gulf of Carpentaria,Australia,Australia,-17.125,139.86,-,-,-,12,12,?,-,-,-,-,-,-,-,-,-,-,-,,,,,,,,,,,
2,x,TAI HU,-,-,China,Asia,31.25,120.08,-,-,-,>70,70,365,328.5,365,401.5,-,10%,-,-,-,-,-,-,,,,,,,,,,,
2,-,Talundilly,-,-,Australia,Australia,-24.73,144.62,-,-,-,30,30,128±5,123,128,133,5,-,-,-,-,-,-,-,,,,,,,,,,,
2,x,TAZARAL,-,-,Kazakhstan,Asia,46.48,73.70,-,-,-,6.5x2.0,4.25,?,-,-,-,-,-,-,-,-,-,-,-,,,,,,,,,,,
2,-,Temimichât-Ghallaman,-,-,Mauritania,Africa,24.2485,-9.6510,-,-,-,0.64x0.73,0.7,?,-,-,-,-,-,0,-,-,-,-,-,,,,,,,,,,,
2,x,TOKRAUSKAYA,-,-,Kazakhstan,Asia,47.73,75.48,-,-,-,220,220,?,-,-,-,-,-,-,-,-,-,-,-,,,,,,,,,,,
2,-,Toms Canyon,-,"New Jersey, offshore ",USA,North America,39.13,-73.21,-,-,-,22,22,35.4 ±0.4,35,35.4,35.8,0.4,-,-,-,-,-,-,-,,,,,,,,,,,
2,x,TOR,-,-,Sweden,Europe,62.52,12.63,-,-,-,0.02,0.02,0.002 ±0.0004,0.0016,0.002,0.0024,0.0004,-,-,-,-,-,-,-,,,,,,,,,,,
2,-,Trindjupet (=Bottenviken),-,-,Sweden,Europe,64.2,22.4,-,-,-,5,5,<542,-,-,542,-,-,-,-,-,-,-,-,,,,,,,,,,,
2,-,Tsenkher,-,Bayan Khongor,Mongolia,Asia,43.6330,98.3662,-,-,-,3.6,3.6,late Tertiary to Quaternary,0,-,23,-,stratigraphic,0,-,N,S,-,-,,,,,,,,,,,
2,-,Tsöörikmäe,-,-,Estonia,Europe,58.07,27.45,-,-,-,0.04,0.04,0.0095,0.00855,0.0095,0.01045,-,10%,-,-,-,-,-,-,,,,,,,,,,,
2,-,Tüttensee,Chiemgau,Bavaria,Germany,Europe,47.85,12.57,-,-,-,0.5,0.5,480 BC - 202 AD,0.00180,-,0.00290,-,"archeologic, stratigraphic, dendrologic, 14C",0,-,Y,-,-,-,,,,,,,,,,,
2,x,TYGU,-,-,Australia,Australia,-,-,-,-,-,-,-1,precam.,542,-,-,-,-,-,-,-,-,-,-,,,,,,,,,,,
2,x,UM-HADID,-,-,Saudi Arabia,Asia,21.50,50.67,-,-,-,0.01,0.01,?,-,-,-,-,-,-,-,-,-,-,-,,,,,,,,,,,
2,-,unnamed,-,-,Sudan,Africa,17.95,37.92,-,-,-,5.8,5.8,?,-,-,-,-,-,0,-,-,-,-,-,,,,,,,,,,,
2,-,Ust-Kara,-,-,Russia,Asia,69.28,65.35,-,-,-,25,25,70.3 ± 2.2,68.1,70.3,72.5,2.2,-,-,-,-,-,-,-,,,,,,,,,,,
2,-,Vaidasoo,-,-,Estonia,Europe,59.2675,25.0425,-,-,-,0.55,0.55,?,-,-,-,-,-,0,-,Y,-,-,-,,,,,,,,,,,
2,-,Velingara,-,-,Senegal,Africa,13.0369,-14.1278,-,-,-,48,48,late Eoc - Olig,23,-,40.4,-,-,0,-,Y,-,-,-,,,,,,,,,,,
2,-,Versailles,-,Kentucky,USA,North America,38.03,-84.70,-,-,-,1.5,1.5,<400.0,-,-,400,-,-,0,-,-,-,-,-,,,,,,,,,,,
2,-,Victoria Island,-,California,USA,North America,37.53,-121.32,-,-,-,5.5,5.5,middle Eocene,37,-,49,-,stratigraphic,1490-1600,0,Y,Ss,-,-,,,,,,,,,,,
2,-,Viewfield,-,Saskatchewan,Canada,North America,49.59126,-103.05489,-,-,-,3.2,3.2,Triassic-Middle Jurassic,161,-,245,-,stratigraphic,buried,0,Y,Ssce,-,-,,,,,,,,,,,
2,-,Weaubleau,-,Missouri,USA,North America,37.8,-93.6,-,-,-,7,7,345 ±10,335,345,355,10,-,0,-,Y,-,-,-,,,,,,,,,,,
2,-,Wipfelsfurt,-,-,Germany,Europe,48.90,11.84,-,-,-,0.65,0.65,?,-,-,-,-,-,0,-,-,-,-,-,,,,,,,,,,,
2,-,Woodbury (=Cove Dome),-,Georgia,USA,North America,32.917,-84.533,-,-,-,7,7,post Late Paleozoic Hollis Quartzite,-,-,416,-,-,0,-,-,-,-,-,,,,,,,,,,,
2,-,Yallalie,-,-,Australia,Australia,-30.45,115.77,-,-,-,13,13,~90,81,90,99,-,10%,-,-,-,-,-,-,,,,,,,,,,,
2,-,Zhongcangxiang,-,Tibet,China,Asia,32.04454,85.33388,0.05,0.05,-,0.05,0.05,Holocene,0,-,0.0115,-,"stratigraphic, geomorphologic",0,0,n,S,0,-,,,,,,,,,,,
3,-,Agheir,-,-,Mauritania,Africa,20,-15,-,-,-,-,-1,-,-,-,-,-,-,-,-,-,-,-,-,,,,,,,,,,,
3,x,AGNAK,-,-,Canada,North America,67.50,-108.00,-,-,-,0.17,0.17,?,-,-,-,-,-,-,-,-,-,-,-,,,,,,,,,,,
3,-,Aimorés,-,-,Brazil,South America,-19.425,-41.046,-,-,-,10,10,?,-,-,-,-,-,0,-,-,-,-,-,,,,,,,,,,,107
3,x,AKCHOKY,-,-,Kazakhstan,Asia,47.70,72.38,-,-,-,10,10,?,-,-,-,-,-,-,-,-,-,-,-,,,,,,,,,,,
3,x,AKONVESI,-,-,Finland,Europe,63.02,28.27,-,-,-,2.5,2.5,?,-,-,-,-,-,-,-,-,-,-,-,,,,,,,,,,,
3,-,Al Hashima,-,-,Saudi Arabia,Asia,27.85,43.1,-,-,-,15,15,?,-,-,-,-,-,-,-,-,-,-,-,,,,,,,,,,,
3,-,Al Madafi,-,-,Saudi Arabia,Asia,28.653,37.191,-,-,-,6,6,<360.0,-,-,360,stratigraphic,-,0,0,-,Ss,-,-,,,,,,,,,,,
3,-,Al Umchaimin (=Um Chaimin=Tleachman),-,-,Iraq,Asia,32.5847,39.4215,-,-,-,2.75,3.2,post Paleocene,-,-,55.8,-,stratigraphic,0,-,-,-,-,-,,,,,,,,,,,
3,-,Ålaape,-,-,Sweden,Europe,67.70,19.20,-,-,-,10,10,?,-,-,-,-,-,-,-,-,-,-,-,,,,,,,,,,,
3,x,ALA-KITKA,-,-,Finland,Europe,66.28,28.97,-,-,-,8,8,?,-,-,-,-,-,-,-,-,-,-,-,,,,,,,,,,,
3,x,ALEXEYEVSKOYE,-,-,Russia,Asia,55.30,50.10,-,-,-,0.04,0.04,?,-,-,-,-,-,-,-,-,-,-,-,,,,,,,,,,,
3,-,Alvaro Obregón,-,north,Mexico,North America,-,-,-,-,-,-,-1,?,-,-,-,-,-,-,-,-,-,-,-,,,,,,,,,,,
3,-,Alvasjön,-,-,Sweden,Europe,58.0833,14.1218,-,1.60,-,1.6,1.6,?,-,-,-,-,-,0,0,-,-,-,-,,,,,,,,,,,
3,-,Amak,-,-,USA,North America,55.73,-163.15,-,-,-,0.16,0.16,?,-,-,-,-,-,-,-,-,-,-,-,,,,,,,,,,,
3,x,AMAMI,-,-,Japan,Asia,28.42,129.63,-,-,-,2.4,2.4,?,-,-,-,-,-,-,-,-,-,-,-,,,,,,,,,,,
3,-,Amönau,-,Hessen,Germany,Europe,50.90,8.68,-,-,-,na,-1,383.4 ± 0.5,382.9,383.4,383.9,0.5,stratigraphic,-,-,-,-,-,-,,,,,,,,,,,
3,x,AMURSKII,-,-,Russia,Asia,48.00,132.70,-,-,-,0.175,0.175,?,-,-,-,-,-,-,-,-,-,-,-,,,,,,,,,,,
3,-,Anderviken,-,-,Sweden,Europe,58.9,17.6,-,-,-,2,2,?,-,-,-,-,-,-,-,-,-,-,-,,,,,,,,,,,
3,-,Anefis,-,-,Mali,Africa,18.0734,-0.0501,-,-,-,3,3,post-Paleogene,0,-,23,-,-,0,0,-,-,-,-,,,,,,,,,,,
3,-,Aorounga center,-,-,Chad,Africa,19.229,19.261,-,-,-,11.7,11.7,?,-,-,-,-,-,-,-,-,-,-,-,,,,,,,,,,,
3,-,Aorounga east,-,-,Chad,Africa,19.451,19.505,-,-,-,11.6,11.6,?,-,-,-,-,-,-,-,-,-,-,-,,,,,,,,,,,
3,-,Aorounga north,-,-,Chad,Africa,19.388,19.327,-,-,-,12,12,?,-,-,-,-,-,-,-,-,-,-,-,,,,,,,,,,,
3,-,Araona,-,-,Bolivia,South America,-,-,-,-,-,-,-1,?,-,-,-,-,-,0,-,-,-,-,-,,,,,,,,,,,
3,x,ARCHANGEL'SKOE,-,-,Russia,Asia,57.80,46.30,-,-,-,0.09,0.09,?,-,-,-,-,-,-,-,-,-,-,-,,,,,,,,,,,
3,x,ARNHEM,-,-,Australia,Australia,-13.17,135.67,-,-,-,-,-1,?,-,-,-,-,-,-,-,-,-,-,-,,,,,,,,,,,
3,-,Arroyo Las Garzas,-,Santa Fe,Argentina,South America,-28.7306,-59.4966,-,-,-,1.5,1.5,<0.1,-,-,0.1,-,-,0,-,N,-,-,-,,,,,,,,,,,
3,-,Aukstadvaris,-,-,Lithuania,Europe,53.50,24.60,-,-,-,0.185,0.185,?,-,-,-,-,-,0,-,-,-,-,-,,,,,,,,,,,
3,x,AURESELKÄ,-,-,Finland,Europe,62.00,23.38,-,-,-,4.5,4.5,?,-,-,-,-,-,-,-,-,-,-,-,,,,,,,,,,,
3,-,Avon,-,Missouri,USA,North America,37.7,-90.2,-,-,-,17,17,post-Devonian to <360,359,-,360,-,-,-,-,-,-,-,-,,,,,,,,,,,
3,-,Azenak East,-,-,Niger,Africa,16.5,8.0,-,-,-,1,1,post-Jurassic,-,-,145.5,-,-,0,-,-,-,-,-,,,,,,,,,,,
3,-,Azenak West,-,-,Niger,Africa,16.5,8.0,-,-,-,0.5,0.5,post-Jurassic,-,-,145.5,-,-,0,-,-,-,-,-,,,,,,,,,,,
3,x,BAGHDAD,-,-,Iraq,Asia,33.33,44.42,-,-,-,-,-1,?,-,-,-,-,-,-,-,-,-,-,-,,,,,,,,,,,
3,-,Baibasunskaya,-,-,Kazakhstan,Asia,47,73,-,-,-,0.48,0.48,-,-,-,-,-,-,-,-,-,-,-,-,,,,,,,,,,,
3,-,Bajada del Diablo,Bajada del Diablo,Chubut,Argentina,South America,-42.75,-67.50,-,-,-,1,1,Tertiary to Pleistocene,0.01,-,65,-,stratigraphic,0,-,-,-,-,-,,,,,,,,,,,
3,-,Bajo Hondo,-,Patagonia,Argentina,South America,-42.297,-67.924,-,-,-,3.9,3.9,<10,-,-,10,-,stratigraphic,0,-,-,-,-,-,,,,,,,,,,,
3,x,BALKHASH,-,-,Kazakhstan,Asia,45.75,77.50,-,-,-,2,2,?,-,-,-,-,-,-,-,-,-,-,-,,,,,,,,,,,
3,x,BALKHASH LAKE,-,-,Kazakhstan,Asia,47.00,73.00,-,-,-,720,720,?,-,-,-,-,-,-,-,-,-,-,-,,,,,,,,,,,
3,-,Bangweulu,-,-,Zambia,Africa,-11.54,30.14,-,-,-,150,150,<620.0,-,-,620,-,-,0,-,-,-,-,-,,,,,,,,,,,
3,x,BARABA,-,-,Russia,Asia,54.50,77.50,-,-,-,-,-1,?,-,-,-,-,-,-,-,-,-,-,-,,,,,,,,,,,
3,x,BARABOO,-,-,USA,North America,-,-,-,-,-,-,-1,?,-,-,-,-,-,-,-,-,-,-,-,,,,,,,,,,,
3,-,Barramundi,-,Northern Territory,Australia,Australia,-16.82,136.67,-,-,-,4,4,1600-2500,1600,-,2500,-,-,-,-,-,-,-,-,,,,,,,,,,,
3,x,BASRA,-,-,Iraq,Asia,30.33,47.67,-,-,-,-,-1,?,-,-,-,-,-,-,-,-,-,-,-,,,,,,,,,,,
3,-,Båven,-,-,Sweden,Europe,58.9,17.0,-,-,-,15,15,?,-,-,-,-,-,-,-,-,-,-,-,,,,,,,,,,,
3,-,Baydaratsky,-,-,Russia,Asia,-,-,-,-,-,20,20,57,-,57,-,-,-,-,-,-,-,-,-,,,,,,,,,,,
3,-,Beata Crater,-,Venezuelan Basin,-,South America,-,-,-,-,-,180,180,?,-,-,-,-,-,-,-,-,-,-,-,,,,,,,,,,,
3,-,Bee Fork,-,Missouri,USA,North America,37.4,-90.9,-,-,-,-,-1,?,-,-,-,-,-,-,-,-,-,-,-,,,,,,,,,,,
3,-,Belinga,-,-,Gabon,Africa,1.47,12.89,-,-,-,7,7,<3200,-,-,3200,-,stratigraphic,0,-,-,-,-,-,,,,,,,,,,,
3,-,Belize,-,-,-,South America,-,-,-,-,-,-,-1,?,-,-,-,-,-,-,-,-,-,-,-,,,,,,,,,,,
3,-,Berdichev,-,-,Ukraine,Europe,50.00,28.50,-,-,-,0.03,0.03,?,-,-,-,-,-,-,-,-,-,-,-,,,,,,,,,,,
3,x,BEREZOVO,-,-,Russia,Asia,63.00,65.00,-,-,-,0.25,0.25,?,-,-,-,-,-,-,-,-,-,-,-,,,,,,,,,,,
3,-,Biarritz,-,offshore,France,Europe,43.48,1.65,-,-,-,-,-1,?,-,-,-,-,-,-,-,-,-,-,-,,,,,,,,,,,
3,-,Big Lake,-,Mackenzie District,Canada,North America,64.87,-112.95,-,-,-,-,-1,?,-,-,-,-,-,0,-,-,-,-,-,,,,,,,,,,,
3,-,Bizeneuille,-,-,France,Europe,46.40,2.60,-,-,-,300,300,215,193.5,215,236.5,-,10%,-,-,-,-,-,-,,,,,,,,,,,
3,-,Black Rock,-,Nevada,USA,North America,40.984,-118.916,-,-,-,87,87,?,-,-,-,-,-,0,0,Y,-,-,-,,,,,,,,,,,
3,-,Bohemia,-,-,Czech Republic,Europe,49.9,14.7,-,-,-,260,260,>700,700,-,-,-,stratigraphic,-,-,Y,-,-,-,,,,,,,,,,,
3,x,BORISKOVO,-,-,Russia,Asia,56.00,36.50,-,-,-,0.01,0.01,?,-,-,-,-,-,-,-,-,-,-,-,,,,,,,,,,,
3,-,Bowers,-,-,Antarctica,Antarctica,-71.2,176,-,-,-,100,100,?,-,-,-,-,-,-,-,-,-,-,-,,,,,,,,,,,
3,x,BRUKKAROS,-,-,Namibia,Africa,-25.83,18.00,-,-,-,2,2,?,-,-,-,-,-,-,-,-,-,-,-,,,,,,,,,,,
3,-,Burträsket,-,-,Sweden,Europe,64.70,21.00,-,-,-,25,25,Prot.,542,-,2500,-,-,-,-,-,-,-,-,,,,,,,,,,,
3,x,BUTARE,-,-,Rwanda,Africa,-2.60,29.75,-,-,-,-,-1,?,-,-,-,-,-,-,-,-,-,-,-,,,,,,,,,,,
3,-,Cabreron,-,-,France,Europe,-,-,-,-,-,0.22,0.22,0.01,-,-,-,-,-,-,-,-,-,-,-,,,,,,,,,,,
3,-,Calvert Hill,-,Northern Territory,Australia,Australia,-17.37,137.47,-,-,-,4,4,?,-,-,-,-,-,-,-,-,-,-,-,,,,,,,,,,,
3,-,Camooweal,-,Queensland and Northern Territory,Australia,Australia,-10.25,138.12,-,-,-,~30,30,>550,550,-,-,-,-,buried,-,N,-,-,-,,,,,,,,,,,
3,-,Catalina,-,offshore southern California,USA,North America,32.91,-118.09,-,-,-,32,32,16-19,16,-,18,-,stratigraphic/radiometric,buried,-,-,-,-,-,,,,,,,,,,,
3,-,Cerro Blanco,-,New Mexico,USA,North America,36.25967,-106.83729,-,-,-,6,6,Late Cretaceous to Tertiary,1.8,-,100,-,stratigraphic,0,-,-,-,-,-,,,,,,,,,,,
3,-,Cerro Jarau,-,-,Brazil,South America,-30.20,-56.53,-,-,-,10,10,~117,105.3,117,128.7,-,10%,0,-,N,-,-,-,,,,,,,,,,,
3,-,Chicxulub II,-,Yucatan,Mexico,North America,22.0,-89.2,-,-,-,60-80,70,-,-,-,-,-,-,-,-,-,-,-,-,,,,,,,,,,,
3,x,CHIK,-,-,Russia,Asia,55.00,82.50,-,-,-,0.075,0.075,?,-,-,-,-,-,-,-,-,-,-,-,,,,,,,,,,,
3,-,Chituli,-,-,Zambia,Africa,-11.261,32.411,-,-,-,3.8,3.8,Neoproterozoic to Late Paleozoic,251,-,1000,-,-,0,-,-,-,-,-,,,,,,,,,,,
3,-,Chulman,-,-,Russia,Asia,56.9,125,-,-,-,4,4,?,-,-,-,-,-,-,-,-,-,-,-,,,,,,,,,,,
3,-,Cold Turkey Creek,-,North Dakota,USA,North America,45.95,-103.70,-,-,-,5,5,post Middle Ordovician,-,-,461,-,stratigraphic,buried,-,Y,-,-,-,,,,,,,,,,,
3,-,Cowell,-,California,USA,North America,38.524,-121.596,-,-,-,1.3,1.3,25-30,25,-,30,-,stratigraphic,760,0,Y,Ss,0,-,,,,,,,,,,,
3,-,Cuvette Centrale,-,-,Congo,Africa,-0.7,19.9,-,-,-,400-800,600,Late Precambrian to Triassic,200,-,600,-,Stratigraphic,1000,0,Y,"S, (I, M ?)",-,-,,,,,,,,,,,
3,-,Dirranbandi,-,Queensland,Australia,Australia,-28.58,148.17,-,-,-,-,-1,?,-,-,-,-,-,-,-,-,-,-,-,,,,,,,,,,,
3,x,DOGUBAYAZID,-,-,Turkey,Asia,39.53,44.23,-,-,-,0.035,0.035,?,-,-,-,-,-,-,-,-,-,-,-,,,,,,,,,,,
3,x,DOLGOE,-,-,Russia,Asia,54.00,37.90,-,-,-,0.03,0.03,?,-,-,-,-,-,-,-,-,-,-,-,,,,,,,,,,,
3,-,Drängsjön,-,-,Sweden,Europe,59.50,18.50,-,-,-,1.5,1.5,?,-,-,-,-,-,-,-,-,-,-,-,,,,,,,,,,,
3,-,Dumas,-,-,Canada,North America,40.92,-102.12,-,-,-,3.2,3.2,<70,-,-,70,-,-,-,-,-,-,-,-,,,,,,,,,,,
3,-,Dycus,-,-,USA,North America,36.3786,-85.7806,-,-,-,0.6,0.6,Upper Ordovician to Lower Mississippian,345,-,461,-,stratigraphic,0,-,-,-,-,-,,,,,,,,,,,
3,x,DZHAUS,-,-,Tajikistan,Asia,39.20,67.30,-,-,-,0.007,0.007,in 1950?,0.0000495,0.000055,0.0000605,-,10%,0,-,-,-,-,-,,,,,,,,,,,
3,x,DZHEZKAZGAN,-,-,Kazakhstan,Asia,47.00,70.00,-,-,-,300,300,?,-,-,-,-,-,-,-,-,-,-,-,,,,,,,,,,,
3,x,EL MREITI,-,-,Mauritania,Africa,23.50,-6.08,-,-,-,0.7,0.7,?,-,-,-,-,-,-,-,-,-,-,-,,,,,,,,,,,
3,-,El-Mirba (=Treibil),-,-,Iraq,Asia,32.748,39.011,-,-,-,10,10,post Cretaceous,-,-,65.5,-,stratigraphic,0,0,-,Ssc,0,-,,,,,,,,,,,
3,-,Emery Knoll,-,offshore southern California,USA,North America,33.065,-118.36,-,-,-,37,37,16-20,16,-,18,-,stratigraphic/radiometric,buried,-,-,-,-,-,,,,,,,,,,,
3,-,Enyahinskiy,-,-,Russia,Asia,-,-,-,-,-,0.5,0.5,Upper Jurassic,146,-,161,-,stratigraphic,buried,-,-,-,-,-,,,,,,,,,,,
3,x,ERG GHECH,-,-,Algeria,Africa,-,-,-,-,-,-,-1,?,-,-,-,-,-,-,-,-,-,-,-,,,,,,,,,,,
3,x,ERNUR,-,-,Russia,Asia,56.80,47.93,-,-,-,0.125,0.125,?,-,-,-,-,-,-,-,-,-,-,-,,,,,,,,,,,
3,-,Estancia Los Mellizos,-,Santa Cruz,Argentina,South America,-47.354,-70.027,-,-,-,15,15,<170,-,-,170,-,Stratigraphic,0,-,-,-,-,-,,,,,,,,,,,
3,-,Ewing,-,-,Pacific Ocean,North America,0.0,-146.00,-,-,-,150,150,7 to 11,7,-,11,-,biostratigraphic,0,-,-,-,-,-,,,,,,,,,,,
3,-,Filippovskaya,-,Novosib. ar,Russia,Asia,-,-,-,-,-,20,20,Triassic-Early Jurassic,176,-,251,-,-,0,-,-,-,-,-,,,,,,,,,,,
3,x,FINSE,-,-,Norway,Europe,60.33,7.02,-,-,-,0.2,0.2,800-400,400,-,800,-,-,-,-,-,-,-,-,,,,,,,,,,,
3,x,FIRTH,-,-,Great Britain,Europe,60.50,-0.97,-,-,-,-,-1,?,-,-,-,-,-,-,-,-,-,-,-,,,,,,,,,,,
3,-,Fontaine Lake,-,Saskatchewan,Canada,North America,59.70,-106.42,-,-,-,-,-1,?,-,-,-,-,-,0,-,-,-,-,-,,,,,,,,,,,
3,x,FREETOWN,-,-,Sierra Leone,Africa,8.33,-13.33,-,-,-,-,-1,?,-,-,-,-,-,-,-,-,-,-,-,,,,,,,,,,,
3,-,Furnace Creek,-,Missouri,USA,North America,37.7,-90.6,-,-,-,7,7,Late Cambrian ~500,450,500,550,-,10%,-,-,-,-,-,-,,,,,,,,,,,
3,x,GADDBERGSÖ,-,-,Finland,Europe,60.38,26.40,-,-,-,4.5,4.5,?,-,-,-,-,-,-,-,-,-,-,-,,,,,,,,,,,
3,x,GALLOUÉDEC,-,-,Mauritania,Africa,21.00,-15.67,-,-,-,-,-1,?,-,-,-,-,-,-,-,-,-,-,-,,,,,,,,,,,
3,x,GARET EL-LEFET,-,-,Libya,Africa,25.00,16.50,-,-,-,3,3,?,-,-,-,-,-,-,-,-,-,-,-,,,,,,,,,,,
3,x,GLAVA,-,-,Sweden,Europe,59.50,12.30,-,-,-,-,-1,1200-900,900,-,1200,-,-,-,-,-,-,-,-,,,,,,,,,,,
3,-,Gogui,-,-,Mauritania,Africa,15.5,-11.4,-,-,-,0.6,0.6,recent,-,-,0.0115,-,-,0,-,-,-,-,-,,,,,,,,,,,
3,x,GONAMSKI,-,-,Russia,Asia,56.30,126.80,-,-,-,0.025,0.025,?,-,-,-,-,-,-,-,-,-,-,-,,,,,,,,,,,
3,x,GOURMA,-,-,Mali,Africa,15.28,-1.32,-,-,-,0.2,0.2,?,-,-,-,-,-,-,-,-,-,-,-,,,,,,,,,,,
3,-,Govenlock ,-,Alberta,Canada,North America,-,-,-,-,-,-,-1,?,-,-,-,-,-,-,-,-,-,-,-,,,,,,,,,,,
3,-,Gran Altiplanicie Central.,-,Santa Cruz,Argentina,South America,-,-,-,-,-,1,1,<12,-,-,12,-,stratigraphic,0,-,-,-,-,-,,,,,,,,,,,
3,-,Great Depression,-,Siberia,Russia,Asia,60.92,101.95,-,-,-,8,8,Triassic,200,-,251,-,stratigraphic,0,-,-,-,-,-,,,,,,,,,,,
3,-,Guadalupe,-,-,-,South America,-,-,-,-,-,-,-1,?,-,-,-,-,-,-,-,-,-,-,-,,,,,,,,,,,
3,x,GUERRARA,-,-,Algeria,Africa,33.32,5.28,-,-,-,-,-1,?,-,-,-,-,-,-,-,-,-,-,-,,,,,,,,,,,
3,-,Gulpuliyul,-,Northern Territory,Australia,Australia,-13.32,134.10,-,-,-,10,10,542-1600,542,-,1600,-,-,0,-,-,-,-,-,,,,,,,,,,,
3,-,Gunnison,-,Colorado,USA,North America,38.48188,-106.98386,-,-,-,8.4,8.4,<1700,0,-,1700,-,stratigraphic,0,0,-,"I, M",-,-,,,,,,,,,,,
3,x,HAAPASELKÄ,-,-,Finland,Europe,61.58,28.28,-,-,-,5.5,5.5,?,-,-,-,-,-,-,-,-,-,-,-,,,,,,,,,,,
3,x,HAGENS FJORD,-,-,Greenland,Europe,81.75,-28.25,-,-,-,-,-1,?,-,-,-,-,-,-,-,-,-,-,-,,,,,,,,,,,
3,-,Haiti,-,-,-,North America,-,-,-,-,-,-,-1,?,-,-,-,-,-,-,-,-,-,-,-,,,,,,,,,,,
3,-,Halsarendjupet,-,-,Sweden,Europe,60.2,19.1,-,-,-,15,15,Paleozoic,251,-,542,-,-,-,-,-,-,-,-,,,,,,,,,,,
3,x,HANKAJÄRVI,-,-,Finland,Europe,62.88,24.35,-,-,-,2.7,2.7,?,-,-,-,-,-,-,-,-,-,-,-,,,,,,,,,,,
3,x,HANKAVESI,-,-,Finland,Europe,62.37,26.40,-,-,-,3.5,3.5,?,-,-,-,-,-,-,-,-,-,-,-,,,,,,,,,,,
3,x,HARADS,-,-,Sweden,Europe,-,-,-,-,-,170,170,?,-,-,-,-,-,-,-,-,-,-,-,,,,,,,,,,,
3,-,Hardangervidda,-,-,Norway,Europe,60.55833,7.03278,-,-,-,-,-1,late Precambrian - Caledonian orogeny,359,-,1000,-,stratigraphic,0,0,-,-,-,-,,,,,,,,,,,
3,x,HÄRKMERIFJÄRDEN,-,-,Finland,Europe,62.18,21.45,-,-,-,6,6,?,-,-,-,-,-,-,-,-,-,-,-,,,,,,,,,,,
3,-,Haswell Hole,-,Colorado,USA,North America,38.326,-103.094,-,-,-,35,35,"1400 to late Proterozic, probably ~1000",542,1000,1400,-,stratigraphic,-,-,Y,-,-,-,,,,,,,,,,,
3,x,HAUTOSELKÄ,-,-,Finland,Europe,61.62,26.47,-,-,-,5,5,?,-,-,-,-,-,-,-,-,-,-,-,,,,,,,,,,,
3,-,Hazel Green,-,Missouri,USA,North America,37.85,-92.2,-,-,-,-,-1,Late Cambrian ~500,450,500,550,-,10%,-,-,-,-,-,-,,,,,,,,,,,
3,-,Hemauer Pulk,Hemauer Pulk,-,Germany,Europe,49.05,11.78,-,-,-,2,2,?,-,-,-,-,-,0,-,-,-,-,-,,,,,,,,,,,
3,-,Hemmestorp,-,-,Sweden,Europe,56.3,14.1,-,-,-,6,6,?,-,-,-,-,-,-,-,-,-,-,-,,,,,,,,,,,
3,-,Herbert,-,-,Australia,Australia,-25.05,124.38,-,-,-,8,8,≤Middle Cambr.,-,-,501,-,-,-,-,-,-,-,-,,,,,,,,,,,
3,-,Herpuchi,Herpuchi,Khabar.kr.,Russia,Asia,52.9,138.1,-,-,-,0.03,0.03,?,-,-,-,-,-,0,-,-,-,-,-,,,,,,,,,,,
3,-,Hickman,-,-,Australia,Australia,-23.03707,119.68311,-,-,-,0.26,0.26,<0.1,-,-,0.1,-,geomorphologic,0,0,n,-,-,-,,,,,,,,,,,
3,-,Hicks Dome,-,Illinois,USA,North America,37.6,-88,-,-,-,16,16,late Mississippian to early Pensylvanian,310,-,330,-,-,-,-,-,-,-,-,,,,,,,,,,,
3,x,HIRVISELKÄ,-,-,Finland,Europe,62.78,27.82,-,-,-,7,7,?,-,-,-,-,-,-,-,-,-,-,-,,,,,,,,,,,
3,-,Hogane,-,-,Sweden,Europe,58.6,12.1,-,-,-,5,5,?,-,-,-,-,-,-,-,-,-,-,-,,,,,,,,,,,
3,x,HONGKONG,-,-,China,Asia,24.70,-,-,-,-,11,11,43.3,38.97,43.3,47.63,-,10%,-,-,-,-,-,-,,,,,,,,,,,
3,x,HOSHIKUBO,-,-,Japan,Asia,26.27,127.78,-,-,-,0.6,0.6,?,-,-,-,-,-,-,-,-,-,-,-,,,,,,,,,,,
3,x,HOSHINOKO-ZAN,-,-,Japan,Asia,35.73,133.23,-,-,-,-,-1,?,-,-,-,-,-,-,-,-,-,-,-,,,,,,,,,,,
3,x,HOUSUSELKÄ,-,-,Finland,Europe,68.22,25.00,-,-,-,6,6,?,-,-,-,-,-,-,-,-,-,-,-,,,,,,,,,,,
3,-,Idritsa,-,-,Russia,Asia,56.30,28.80,-,-,-,-,-1,?,-,-,-,-,-,-,-,-,-,-,-,,,,,,,,,,,
3,-,Ilkurka,-,-,Australia,Australia,-28.37,127.43,-,-,-,15,15,≤Middle Cambr.,-,-,501,-,-,buried,-,-,-,-,-,,,,,,,,,,,
3,-,Inajah,-,-,Brazil,South America,-8.67,-50.97,-,-,-,6,6,?,-,-,-,-,-,0,-,N,-,-,-,,,,,,,,,,,
3,x,INTALY,-,-,Kazakhstan,Asia,61.97,30.92,-,-,-,20,20,?,-,-,-,-,-,-,-,-,-,-,-,,,,,,,,,,,
3,x,ISO-RÄYRINKI,-,-,Finland,Europe,62.92,23.92,-,-,-,2,2,?,-,-,-,-,-,-,-,-,-,-,-,,,,,,,,,,,
3,x,IVAR,-,-,Sweden,Europe,55.45,16.38,-,-,-,5,5,<250.0,-,-,250,-,-,-,-,-,-,-,-,,,,,,,,,,,
3,-,Järna,-,-,Sweden,Europe,60.6,14.2,-,-,-,12,12,?,-,-,-,-,-,-,-,-,-,-,-,,,,,,,,,,,
3,-,Jeskazganskiy,-,-,Russia,Asia,-,-,-,-,-,100,100,?,-,-,-,-,-,-,-,-,-,-,-,,,,,,,,,,,
3,-,Joey ,-,southern offshore,Australia,Australia,-39.16,141.21,-,-,-,4,4,?,-,-,-,-,-,buried,-,-,-,-,-,,,,,,,,,,,
3,-,Judge ,-,offshore Long Island,USA,North America,41.17,-72.405,-,-,-,1,1,?,-,-,-,-,-,buried,-,-,-,-,-,,,,,,,,,,,
3,x,JUOJÄRVI,-,-,Finland,Europe,62.73,28.63,-,-,-,6.5,6.5,?,-,-,-,-,-,-,-,-,-,-,-,,,,,,,,,,,
3,x,JUURUSVESI,-,-,Finland,Europe,63.07,27.92,-,-,-,12,12,?,-,-,-,-,-,-,-,-,-,-,-,,,,,,,,,,,
3,x,KAIBSKO-CHUISKAYA,-,-,Kazakhstan,Asia,46.00,72.50,-,-,-,550,550,?,-,-,-,-,-,-,-,-,-,-,-,,,,,,,,,,,
3,x,KAKKARAVAARA,-,-,Finland,Europe,62.97,30.93,-,-,-,12,12,?,-,-,-,-,-,-,-,-,-,-,-,,,,,,,,,,,
3,x,KALOTFJÄRDEN,-,-,Finland,Europe,63.33,22.10,-,-,-,17,17,?,-,-,-,-,-,-,-,-,-,-,-,,,,,,,,,,,
3,-,Kalushskaja,-,-,Ukraine,Europe,49.00,24.37,-,-,-,-,-1,?,-,-,-,-,-,-,-,-,-,-,-,,,,,,,,,,,
3,-,Kangaroo ,-,southern offshore,Australia,Australia,-39.0465,141.285,-,-,-,5,5,?,-,-,-,-,-,buried,-,-,-,-,-,,,,,,,,,,,
3,-,Karachev (= Carahec),-,-,Russia,Europe,53.20,35.10,-,-,-,-,-1,?,-,-,-,-,-,0,-,-,-,-,-,,,,,,,,,,,
3,x,KARAGANDA,-,-,Russia,Asia,49.80,73.20,-,-,-,0.08,0.08,?,-,-,-,-,-,-,-,-,-,-,-,,,,,,,,,,,
3,-,Karelia,-,-,Russia,Europe,62.38,34.95,-,~100,-,~100,100,?,-,-,-,-,-,-,-,-,-,-,-,,,,,,,,,,,
3,x,KASABA,-,-,Russia,Asia,53.80,61.40,-,-,-,1,1,?,-,-,-,-,-,-,-,-,-,-,-,,,,,,,,,,,
3,x,KASARIK (=Kazaric),-,Lugan. Area,Russia,Asia,49.90,38.30,-,-,-,0.7,0.7,?,-,-,-,-,-,-,-,-,-,-,-,,,,,,,,,,,
3,x,KASARINSELKÄ,-,-,Finland,Europe,68.95,27.68,-,-,-,10.5,10.5,?,-,-,-,-,-,-,-,-,-,-,-,,,,,,,,,,,
3,x,KATEN,-,-,Russia,Asia,47.00,136.40,-,-,-,0.04,0.04,?,-,-,-,-,-,-,-,-,-,-,-,,,,,,,,,,,
3,-,Kattfjorden,-,-,Sweden,Europe,59.4,13.1,-,-,-,7.5,7.5,?,-,-,-,-,-,-,-,-,-,-,-,,,,,,,,,,,
3,x,KEELEY LAKE,-,-,Canada,North America,54.90,-108.13,-,-,-,12.8,12.8,?,-,-,-,-,-,-,-,-,-,-,-,,,,,,,,,,,
3,x,KET,-,-,Russia,Asia,-,-,-,-,-,none,-1,?,-,-,-,-,-,-,-,-,-,-,-,,,,,,,,,,,
3,x,KHURUNXARAGA,-,-,Botswana,Africa,-19.83,23.33,-,-,-,0.022,0.022,?,-,-,-,-,-,-,-,-,-,-,-,,,,,,,,,,,
3,x,KILA,-,-,Sweden,Europe,59.20,12.80,-,-,-,-,-1,1600,1440,1600,1760,-,10%,-,-,-,-,-,-,,,,,,,,,,,
3,x,KIURUJÄRVI,-,-,Finland,Europe,67.52,27.42,-,-,-,2,2,?,-,-,-,-,-,-,-,-,-,-,-,,,,,,,,,,,
3,-,Kizyl Chilik,-,East Kazakhstan,Kazakhstan,Asia,50.1043,81.0155,-,2.50,-,2.5,2.5,?,-,-,-,-,-,-,-,-,-,-,-,,,,,,,,,,,
3,-,Kobrin,-,-,Russia,Asia,52.20,24.20,-,-,-,0.25,0.25,-,-,-,-,-,-,-,-,-,-,-,-,,,,,,,,,,,
3,-,Kogo,-,-,Equatorial Guinea,Africa,1.18,10.02,-,-,-,4.67,4.67,>145,-,-,145,-,stratigraphic,0,0,-,M,-,-,,,,,,,,,,,
3,x,KOGRAM,-,-,Russia,Asia,-,-,-,-,-,-,-1,?,-,-,-,-,-,-,-,-,-,-,-,,,,,,,,,,,
3,x,KÖKLOTFJÄRDEN,-,-,Finland,Europe,63.28,21.73,-,-,-,7.4,7.4,?,-,-,-,-,-,-,-,-,-,-,-,,,,,,,,,,,
3,-,Konder,-,-,Russia,Asia,57.50,134.83,-,-,-,9,9,?,-,-,-,-,-,-,-,-,-,-,-,,,,,,,,,,,
3,-,Korchazh (=Yama Korchazhikha),Korchazh,Siberia,Russia,Asia,52.18617,106.8072,-,-,-,0.2-0.3,0.25,Neogene - recent,0,-,23,-,stratigraphic,0,-,-,-,-,-,,,,,,,,,,,
3,x,KORPINEN,-,-,Finland,Europe,63.50,27.95,-,-,-,3,3,?,-,-,-,-,-,-,-,-,-,-,-,,,,,,,,,,,
3,-,Koscierzyny,-,-,Poland,Europe,-,-,-,-,-,40,40,?,-,-,-,-,-,-,-,-,-,-,-,,,,,,,,,,,
3,x,KOSTONJÄRVI,-,-,Finland,Europe,65.80,28.45,-,-,-,9,9,?,-,-,-,-,-,-,-,-,-,-,-,,,,,,,,,,,
3,x,KOTKATSELKÄ,-,-,Finland,Europe,61.73,25.60,-,-,-,5,5,?,-,-,-,-,-,-,-,-,-,-,-,,,,,,,,,,,
3,x,KOZHVA,-,-,Russia,Asia,65.00,56.50,-,-,-,0.1,0.1,?,-,-,-,-,-,-,-,-,-,-,-,,,,,,,,,,,
3,-,Krk,-,Krk island,Croatia,Europe,45.045,14.592,-,-,-,14x11,12.5,post-Lutetian to pre-final Dinarids folding,-,-,40.4,-,stratigraphic,0,-,Y,-,-,-,,,,,,,,,,,
3,-,Kuradihaud,Ilumetsä,-,Estonia,Europe,57.961,27.397,-,-,-,0.024,0.024,0.0059-0.0067,0.0059,-,0.0067,0.0001,"stratigraphic, C14",0,0,Y,Ss,0,-,,,,,,,,,,,
3,x,LA SAUVETAT,-,-,France,Europe,44.87,1.52,-,-,-,-,-1,?,-,-,-,-,-,-,-,-,-,-,-,,,,,,,,,,,
3,x,Labynkyr,-,-,Russia,Asia,62.50,143.00,-,-,-,60,60,?,-,-,-,-,-,-,-,-,-,-,-,,,,,,,,,,,
3,x,LAC BOUCHET,-,-,France,Europe,44.93,3.78,-,-,-,-,-1,?,-,-,-,-,-,-,-,-,-,-,-,,,,,,,,,,,
3,x,LAC CHATELAIN,-,-,Canada,North America,60.25,-74.60,-,-,-,0.06,0.06,?,-,-,-,-,-,-,-,-,-,-,-,,,,,,,,,,,
3,-,Lac Iro,-,-,Chad,Africa,10.10,19.42,-,-,-,12,12,?,-,-,-,-,-,0,-,-,-,-,-,,,,,,,,,,,
3,-,Lac Roz,-,Quebec,Canada,North America,54.82,-72.92,-,-,-,-,-1,?,-,-,-,-,-,0,-,-,-,-,-,,,,,,,,,,,
3,-,Lake Huron (=Can-Am),-,-,USA/Canada,North America,43.2368,-82.3313,-,-,-,100,100,post-Grenville to early Paleozoic,-,-,-,-,-,buried,-,-,-,-,-,,,,,,,,,,,
3,x,LÄNSIHAARA,-,-,Finland,Europe,65.65,26.88,-,-,-,10,10,?,-,-,-,-,-,-,-,-,-,-,-,,,,,,,,,,,
3,-,Las Praderas,-,-,Nicaragua,Central America,15.36,-85.95,-,-,-,14,14,?,-,-,-,-,-,0,-,-,-,-,-,,,,,,,,,,,
3,-,Lennis,-,-,Australia,Australia,-27.6,127.0,-,-,-,20,20,≤Middle Cambr.,-,-,501,-,-,-,-,-,-,-,-,,,,,,,,,,,
3,x,LEPSINSK,-,-,Russia,Asia,45.50,80.70,-,-,-,0.55,0.55,?,-,-,-,-,-,-,-,-,-,-,-,,,,,,,,,,,
3,x,LIANOZOVO,-,-,Russia,Europe,55.90,37.60,-,-,-,0.05,0.05,?,-,-,-,-,-,-,-,-,-,-,-,,,,,,,,,,,
3,-,Likstammen,-,-,Sweden,Africa,58.9,17.1,-,-,-,3,3,?,-,-,-,-,-,-,-,-,-,-,-,,,,,,,,,,,
3,-,Lima,-,Indiana,USA,North America,41.6,-85.8,-,-,-,113,113,?,-,-,-,-,-,buried,-,Y,-,-,-,,,,,,,,,,,
3,x,LIMESTONE MOUNTAIN,-,-,USA,North America,-,-,-,-,-,-,-1,?,-,-,-,-,-,-,-,-,-,-,-,,,,,,,,,,,
3,-,Limgytynot,-,eastern Siberia,Russia,Asia,65.869,-177.234,-,-,-,12,12,?,-,-,-,-,-,0,-,-,-,-,-,,,,,,,,,,,
3,x,LINTUSELKÄ,-,-,Finland,Europe,63.03,25.18,-,-,-,4,4,?,-,-,-,-,-,-,-,-,-,-,-,,,,,,,,,,,
3,-,Llica,-,-,Bolivia,South America,-19.82,-68.32,-,-,-,2.8x2.5,4,?,-,-,-,-,-,0,-,N,-,-,-,,,,,,,,,,,
3,-,Loch Leven,-,Scotland,Great Britain,Europe,56.20,-3.38,-,-,-,8x18,2.65,late Carboniferous,299,-,318,-,-,0,-,-,-,-,-,,,,,,,,,,,
3,-,Loftahammar,-,-,Sweden,Europe,57.90,16.50,-,-,-,1.5,1.5,?,-,-,-,-,-,-,-,-,-,-,-,,,,,,,,,,,
3,x,LOHTAJANSELKÄ,-,-,Finland,Europe,64.10,23.55,-,-,-,10.5,10.5,?,-,-,-,-,-,-,-,-,-,-,-,,,,,,,,,,,
3,-,Lorne Basin,-,-,Australia,Australia,-31.6,152.62,-,-,-,30,30,Early Triassic,245,-,251,-,-,-,-,-,-,-,-,,,,,,,,,,,
3,-,Luizi,-,-,Democratic Republic Congo,Africa,-10.165,28.005,-,-,-,12.6,12.6,<620,-,-,620,-,-,0,-,-,-,-,-,,,,,,,,,,,
3,-,Luna,-,-,-,India,23.70472,69.26028,-,-,-,2.15,2.15,Holocene,-,-,0.0115,-,stratigraphic,0,-,-,-,-,-,,,,,,,,,,,
3,x,LUOTEENJÄRVI,-,-,Finland,Europe,64.65,27.33,-,-,-,3.6,3.6,?,-,-,-,-,-,-,-,-,-,-,-,,,,,,,,,,,
3,x,LYNG-GUKTA,-,-,Norway,Europe,69.22,29.20,-,-,-,5.5,5.5,?,-,-,-,-,-,0,-,-,-,-,-,,,,,,,,,,,
3,-,Madagascar 1,-,-,Madagascar,Africa,-15.68,46.72,-,-,-,289,289,?,-,-,-,-,-,0,-,-,-,-,-,,,,,,,,,,,
3,-,Madagascar 2,-,-,Madagascar,Africa,-24.37,46.42,-,-,-,98.5,98.5,?,-,-,-,-,-,0,-,-,-,-,-,,,,,,,,,,,
3,-,Madagascar 3,-,-,Madagascar,Africa,-18.84,46.22,-,-,-,12.2,12.2,?,-,-,-,-,-,0,-,-,-,-,-,,,,,,,,,,,
3,-,Madagascar 4,-,-,Madagascar,Africa,-18.71,46.17,-,-,-,4.5,4.5,?,-,-,-,-,-,0,-,-,-,-,-,,,,,,,,,,,
3,-,Madagascar 5,-,-,Madagascar,Africa,-17.82,47.41,-,-,-,12,12,?,-,-,-,-,-,0,-,-,-,-,-,,,,,,,,,,,
3,-,Maningrida,-,Northern Territory,Australia,Australia,-11.87,134.22,-,-,-,8,8,<Neoproterozoic,-,-,1000,-,Stratigraphic,buried,-,-,-,-,-,,,,,,,,,,,
3,-,MAPCIS,-,-,Australia,Australia,-25.3255,131.2321,-,-,-,500-2000,2000,545,-,545,-,-,-,0-6000,0,-,-,-,-,,,,,,,,,,,
3,-,Marras,-,-,Finland,Europe,66.9,25.2,-,-,-,160,160,2200-1770,1770,-,2200,-,-,-,-,-,-,-,-,,,,,,,,,,,
3,x,MARSJÖN,-,-,Sweden,Europe,59.10,12.50,-,-,-,-,-1,1600,1440,1600,1760,-,10%,-,-,-,-,-,-,,,,,,,,,,,
3,x,MARUDI MOUNTAIN,-,-,Br. Guyana,South America,2.17,-59.17,-,-,-,none?,-1,11. Dec 1935,-,0.00007,-,-,-,-,-,-,-,-,-,,,,,,,,,,,
3,x,MATAM,-,-,Senegal,Africa,15.67,-13.30,-,-,-,-,-1,?,-,-,-,-,-,-,-,-,-,-,-,,,,,,,,,,,
3,-,McIntosh Bay,-,Ontario,Canada,North America,52.58,-94.08,-,-,-,-,-1,?,-,-,-,-,-,0,-,-,-,-,-,,,,,,,,,,,
3,-,Meggyespuszta,-,Veszprem county,Hungary,Europe,47.06111,17.93611,-,-,-,0.8,0.8,-,-,-,-,-,-,0,0,-,-,-,-,,,,,,,,,,,
3,x,MEJAOUDA,-,-,Mauritania,Africa,22.72,-7.30,-,-,-,3,3,?,-,-,-,-,-,-,-,-,-,-,-,,,,,,,,,,,
3,-,Mékambo,-,-,Gabon/Congo,Africa,0.9275,13.6736,-,-,-,50,50,2100-2800,2100,-,2800,-,stratigraphic,0-buried,0,-,"M, I",-,-,,,,,,,,,,,
3,x,MELAVESI,-,-,Finland,Europe,62.95,28.17,-,-,-,2.8,2.8,?,-,-,-,-,-,-,-,-,-,-,-,,,,,,,,,,,
3,-,Mercury,-,-,Australia,Australia,-19.1,114.5,-,-,-,>30,30,Turonian-Maastrichtian,65.5,-,93.5,-,stratigraphic,buried,-,N,-,-,-,,,,,,,,,,,
3,-,Merewether (= Hebron),-,Labrador,Canada,North America,58.03,-64.03,-,-,-,0.2,0.2,0.00087,0.000783,0.00087,0.000957,-,10%,-,-,-,-,-,-,,,,,,,,,,,
3,-,Meseta de la Barda Negra,-,Neuquen,Argentina,South America,-39.177,-69.881,-,-,-,1.5,1.5,<14,-,-,14,-,stratigraphic,0,-,N,-,-,-,,,,,,,,,,,
3,-,Meseta del Canguel,Meseta del Canguel,Chubut,Argentina,South America,-44.47,-68.58,-,-,-,1.3,1.3,<20,-,-,20,-,stratigraphic,0,-,-,-,-,-,,,,,,,,,,,
3,-,Meseta del Lago Buenos Aires - A,-,Santa Cruz,Argentina,South America,-46.986,-70.796,-,-,-,0.3,0.3,<7,-,-,7,-,stratigraphic,0,-,-,-,-,-,,,,,,,,,,,
3,-,Meseta del Lago Buenos Aires - B,-,Santa Cruz,Argentina,South America,-47.054,-71.054,-,-,-,1.3x1.5,1.4,<7,-,-,7,-,stratigraphic,0,-,-,-,-,-,,,,,,,,,,,
3,-,Michlifen A,-,-,Morocco,Africa,32.00,3.00,-,-,-,1.9,1.9,?,-,-,-,-,-,-,-,-,-,-,-,,,,,,,,,,,
3,-,Michlifen B,-,-,Morocco,Africa,32.00,3.00,-,-,-,0.8,0.8,?,-,-,-,-,-,-,-,-,-,-,-,,,,,,,,,,,
3,-,Minch Basin,-,Scotland,UK,Europe,58,-6,-,-,-,-,-1,1200,1080,1200,1320,10%,"Pb-Pb, stratigraphic",-,-,-,"M, Ss",-,-,,,,,,,,,,,
3,-,Mingobar,-,-,Australia,Australia,-21.12,145.98,-,-,-,>15,15,late Middle to early Late Devonian,374.5,-,392,-,stratigraphic,buried,-,N,-,-,-,,,,,,,,,,,
3,-,Minkébé,-,-,Gabon,Africa,1.3542,12.4081,-,-,-,90,90,2100-2800,2100,-,2800,-,stratigraphic,0,0,-,"M, I",-,-,,,,,,,,,,,
3,-,Minsk,-,-,Belarus,Europe,53.83,27.67,-,-,-,-,-1,~70,-,70,-,-,-,-,-,-,-,-,-,,,,,,,,,,,
3,-,Möckeln,-,-,Sweden,Europe,59.3,14.5,-,-,-,4.5,4.5,?,-,-,-,-,-,-,-,-,-,-,-,,,,,,,,,,,
3,x,MOGOL,-,-,Russia,Asia,57.50,108.50,-,-,-,0.04,0.04,?,-,-,-,-,-,-,-,-,-,-,-,,,,,,,,,,,
3,x,MORA,-,-,USA,North America,36.00,-105.00,-,-,-,0.01,0.01,?,-,-,-,-,-,-,-,-,-,-,-,,,,,,,,,,,
3,x,MOSQUITO GULF,-,-,Central America,Central America,9.00,-81.50,-,-,-,-,-1,?,-,-,-,-,-,-,-,-,-,-,-,,,,,,,,,,,
3,x,MOUNT DOREEN,-,-,Australia,Australia,-23.00,133.00,-,-,-,-,-1,?,-,-,-,-,-,-,-,-,-,-,-,,,,,,,,,,,
3,-,Mt. Oikeyama,-,-,Japan,Asia,35.405,138.013,-,-,-,0.9,0.9,?,-,-,-,-,-,0,-,-,-,-,-,,,,,,,,,,,
3,-,Muglad Basin,-,Muglad,Sudan,Africa,10.41,27.91,-,-,-,126,126,-,-,-,-,-,-,-,-,-,-,-,-,,,,,,,,,,,
3,-,Mullsjön,-,-,Sweden,Europe,58.318,14.212,-,5.3,-,5.3,5.3,<0.0111,0.0111,-,-,-,stratigraphic,0,0,Y,-,-,-,,,,,,,,,,,
3,x,MURGAB,-,-,Tajikistan,Asia,38.10,74.28,-,-,-,0.09,0.09,?,-,-,-,-,-,-,-,-,-,-,-,,,,,,,,,,,
3,-,Murshid,-,-,Oman,Asia,18.1831,54.9189,-,-,-,2.5,2.5,Albian,100,-,112,-,-,buried,-,N,-,-,-,,,,,,,,,,,
3,-,Murumbo,-,New South Wales,Australia,Australia,-32.4139,150.2280,-,5x6.5,-,5x6.5,5.5,?,-,-,-,-,-,-,-,-,-,-,-,,,,,,,,,,,
3,-,Muskingum,-,Ohio,USA,North America,39.9,-81.8,-,-,-,1.45,1.45,503±2,501,503,505,2,stratigraphic,buried,-,Y,-,-,-,,,,,,,,,,,
3,x,NÄSKÄNSELKÄ,-,-,Finland,Europe,66.20,26.88,-,-,-,4.5,4.5,?,-,-,-,-,-,-,-,-,-,-,-,,,,,,,,,,,
3,-,Navy,-,offshore southern California,USA,North America,32.36,-117.60,-,-,-,12,12,16-18,16,-,18,-,stratigraphic/radiometric,buried,-,-,-,-,-,,,,,,,,,,,
3,-,Nestiar,-,-,Russia,Asia,56.558,45.330,-,-,-,760x480,620,?,-,-,-,-,-,-,-,-,-,-,-,,,,,,,,,,,
3,-,Newcastle (=Corbett),-,-,Ireland,Europe,52.45,-8.91,-,-,-,12.5-15,14,?,-,-,-,-,-,-,-,-,-,-,-,,,,,,,,,,,
3,x,NITSIJÄRVI,-,-,Finland,Europe,69.27,28.02,-,-,-,4,4,?,-,-,-,-,-,-,-,-,-,-,-,,,,,,,,,,,
3,-,no name,-,Catamarca,Argentina,South America,-27.74,-68.66,-,-,-,0.4,0.4,<1.8,-,-,1.8,-,-,0,-,N,-,-,-,,,,,,,,,,,
3,-,no name,-,Mendoza,Argentina,South America,-34.2614,-69.5478,-,-,-,600,600,<0.01,-,-,0.01,-,-,0,-,N,-,-,-,,,,,,,,,,,
3,-,no name,-,Chaco,Argentina,South America,-27.21,-59.62,-,-,-,2.4,2.4,<1.8,-,-,1.8,-,-,0,-,N,-,-,-,,,,,,,,,,,
3,x,NOVKI,-,-,Russia,Asia,56.40,41.10,-,-,-,0.04,0.04,?,-,-,-,-,-,-,-,-,-,-,-,,,,,,,,,,,
3,x,NOVO GUROVKA,-,-,Russia,Asia,54.10,56.10,-,-,-,0.01,0.01,?,-,-,-,-,-,-,-,-,-,-,-,,,,,,,,,,,
3,-,Ntwentwe,-,-,Botswana,Africa,-20.92,24.83,-,-,-,7,7,<200,-,-,200,-,-,-,-,-,-,-,-,,,,,,,,,,,
3,-,Nulanki,-,-,Sweden,Europe,68.1,22.9,-,-,-,2,2,Cen.?,-,-,65,-,-,-,-,-,-,-,-,,,,,,,,,,,
3,-,Numbulwar,Numbulwar,-,Australia,Australia,-14.19753,135.71820,-,-,-,0.45x0.42,0.435,~Quaternary,0,-,1.8,-,stratigraphic,0,0,-,Ss,-,-,,,,,,,,,,,
3,-,Nunjes,-,-,Norway,Europe,69.2,20.5,-,-,-,200,200,Prot.,542,-,2500,-,-,-,-,-,-,-,-,,,,,,,,,,,
3,x,OGNI,-,-,Russia,Asia,51.80,83.50,-,-,-,0.14,0.14,?,-,-,-,-,-,-,-,-,-,-,-,,,,,,,,,,,
3,-,Okefenokee ,Okefenokee ,Georgia,USA,North America,30.6559,-82.3129,-,0.055,-,0.055,0.055,Holocene,0,-,0.012,-,stratigraphic,0,0,-,Ss,0-5,-,,,,,,,,,,,
3,x,OLD FORT RAE,-,-,Canada,North America,62.67,-115.82,-,-,-,-,-1,?,-,-,-,-,-,-,-,-,-,-,-,,,,,,,,,,,
3,-,Omeonga,-,-,Democratic Republic of Congo,Africa,-3.625,24.515,-,-,-,38,38,pre-Quaternary,2,-,-,-,geomorphologic,0,-,-,-,-,-,,,,,,,,,,,
3,-,Önskasjön,-,-,Sweden,Europe,63.7,18.7,-,-,-,4,4,?,-,-,-,-,-,-,-,-,-,-,-,,,,,,,,,,,
3,-,Ösmaren,-,-,Sweden,Europe,60.0,18.5,-,-,-,2.5,2.5,?,-,-,-,-,-,-,-,-,-,-,-,,,,,,,,,,,
3,-,Ostashkov,-,-,Russia,Asia,57.20,33.20,-,-,-,0.075,0.075,?,-,-,-,-,-,-,-,-,-,-,-,,,,,,,,,,,
3,-,Otnos,Otnos,-,Russia,Europe,53.00,35.00,-,-,-,0.05,0.05,?,-,-,-,-,-,0,-,-,-,-,-,,,,,,,,,,,
3,-,Ouro Ndia,-,-,Mali,Africa,15.0,-4.5,-,-,-,3,3,recent,-,-,0.0115,-,-,0,-,-,-,-,-,,,,,,,,,,,
3,-,Outlook,-,Montana,USA,North America,48.83,-104.84,-,-,-,9,9,post Lower Mississippian,-,-,345,-,stratigraphic,buried,-,Y,-,-,-,,,,,,,,,,,
3,x,PADUN,-,-,Russia,Asia,60.00,53.50,-,-,-,0.1,0.1,?,-,-,-,-,-,-,-,-,-,-,-,,,,,,,,,,,
3,-,Panela ,-,Pernambuco,Brazil,South America,-7.8569,-38.1575,-,0.5 x 0.6,-,0.5 x 0.6,0.55,<1.8,0,-,1.8,-,geomorphologic,0,0,-,"I, M",0,-,,,,,,,,,,,
3,x,PARIS,-,-,France,Europe,48.80,2.50,-,-,-,-,-1,?,-,-,-,-,-,-,-,-,-,-,-,,,,,,,,,,,
3,x,PATALAHTI,-,-,Finland,Europe,62.82,26.02,-,-,-,2.5,2.5,?,-,-,-,-,-,-,-,-,-,-,-,,,,,,,,,,,
3,-,Pecos,-,New Mexico,USA,North America,35.61417,-105.65051,-,-,-,~13,13,Late Pennsylvanian to Tertiary,1.8,-,307,-,stratigraphic,0,-,-,-,-,-,,,,,,,,,,,
3,x,PEREVOZ,-,-,Russia,Asia,59.00,116.00,-,-,-,0.086,0.086,?,-,-,-,-,-,-,-,-,-,-,-,,,,,,,,,,,
3,x,PERLOYA,-,-,Lithuania,Europe,-,-,-,-,-,-,-1,?,-,-,-,-,-,-,-,-,-,-,-,,,,,,,,,,,
3,-,Pfahldorf,-,-,Germany,Europe,48.95,11.37,-,-,-,2.5,2.5,?,-,-,-,-,-,0,-,-,-,-,-,,,,,,,,,,,
3,x,PIELPAJÄRVI,-,-,Finland,Europe,68.95,27.10,-,-,-,1.5,1.5,?,-,-,-,-,-,-,-,-,-,-,-,,,,,,,,,,,
3,x,PIPMUACAN EAST,-,-,Canada,North America,49.47,-69.65,-,-,-,16,16,?,-,-,-,-,-,-,-,-,-,-,-,,,,,,,,,,,
3,x,PIPMUACAN WEST,-,-,Canada,North America,49.57,-70.28,-,-,-,20,20,?,-,-,-,-,-,-,-,-,-,-,-,,,,,,,,,,,
3,-,Popigai II,-,N Siberia,Russia,Asia,70.9,113.0,-,-,-,80,80,-,-,-,-,-,-,-,-,-,-,-,-,,,,,,,,,,,
3,-,Popigai III,-,N Siberia,Russia,Asia,70.4,114.5,-,-,-,100,100,-,-,-,-,-,-,-,-,-,-,-,-,,,,,,,,,,,
3,-,Popigai IV,-,N Siberia,Russia,Asia,69.8,115.0,-,-,-,80,80,-,-,-,-,-,-,-,-,-,-,-,-,,,,,,,,,,,
3,x,POPLAR BAY,-,-,Canada,North America,50.37,-95.78,-,-,-,3,3,?,-,-,-,-,-,-,-,-,-,-,-,,,,,,,,,,,
3,x,POROJÄRVI,-,-,Russia,Asia,69.33,29.78,-,-,-,4.5,4.5,?,-,-,-,-,-,-,-,-,-,-,-,,,,,,,,,,,
3,x,PÖYRISJÄRVI,-,-,Finland,Europe,68.73,23.88,-,-,-,8.5,8.5,?,-,-,-,-,-,-,-,-,-,-,-,,,,,,,,,,,
3,-,Puget Sound,-,Washington,USA,-,48.2318,-122.7006,-,-,-,<1,0.5,Quaternary,0,-,1.8,-,stratigraphic,-,0-5,-,Ss,-,-,,,,,,,,,,,
3,-,Puka,-,-,Australia,Australia,-24.0515,132.7095,-,0.26,-,0.26,0.26,?,-,-,-,-,-,0,0,-,-,-,-,,,,,,,,,,,
3,-,Purple Springs,-,Alberta,Canada,North America,49.875,-111.867,-,-,-,3x4,3.5,Mississippian,318,-,360,-,-,buried,-,Y,-,-,-,,,,,,,,,,,
3,x,PUULA,-,-,Finland,Europe,61.98,26.58,-,-,-,38.0 <,38,1890,1701,1890,2079,-,10%,-,-,-,-,-,-,,,,,,,,,,,
3,x,PYHÄNIEMI,-,-,Finland,Europe,61.07,25.45,-,-,-,2,2,?,-,-,-,-,-,-,-,-,-,-,-,,,,,,,,,,,
3,-,Quetzalcoatl ,-,offshore in Gulf of Mexico,Mexico,North America,22.04,-96.32,-,-,-,10,10,?,-,-,-,-,-,buried,-,-,-,-,-,,,,,,,,,,,
3,-,Qui Nhon (see Tonle Sap),-,-,-,Asia,13.78,110.62,-,-,-,100,100,?,-,-,-,-,-,-,-,-,-,-,-,,,,,,,,,,,
3,x,RÄÄKKYLÄ. ,-,-,Finland,Europe,62.33,29.55,-,-,-,4,4,?,-,-,-,-,-,-,-,-,-,-,-,,,,,,,,,,,
3,-,Red Creek,-,Utah,USA,North America,40.90,-109.15,-,-,-,10 to 25,17.5,1525,1372.5,1525,1677.5,-,10%,-,-,-,-,-,-,,,,,,,,,,,
3,-,Reitz Ring,-,-,South Africa,Africa,-27.50,28.20,-,-,-,250-500,375,~3.1,2.8,3.1,3.4,-,10%,0,-,Y,-,-,-,,,,,,,,,,,
3,x,REVOFJÄRDEN,-,-,Finland,Europe,63.27,21.35,-,-,-,3.4,3.4,?,-,-,-,-,-,-,-,-,-,-,-,,,,,,,,,,,
3,-,Riga,-,-,Latvia,Europe,57.00,24.20,-,-,-,0.3,0.3,?,-,-,-,-,-,-,-,-,-,-,-,,,,,,,,,,,
3,-,Rio Vichada,-,-,Colombia,South America,4.49,-69.17,-,-,-,50,50,>30,30,-,-,-,-,0,-,N,-,-,-,,,,,,,,,,,
3,x,RISTIJÄRVI,-,-,Finland,Europe,61.17,26.02,-,-,-,1.3,1.3,?,-,-,-,-,-,-,-,-,-,-,-,,,,,,,,,,,
3,x,ROGOZHINO,-,-,Russia,Asia,52.50,39.50,-,-,-,0.016,0.016,?,-,-,-,-,-,-,-,-,-,-,-,,,,,,,,,,,
3,x,ROINE,-,-,Finland,Europe,61.37,24.13,-,-,-,7.5,7.5,?,-,-,-,-,-,-,-,-,-,-,-,,,,,,,,,,,
3,x,ROSBACH,-,-,Germany,Europe,50.30,8.68,-,-,-,2.3,2.3,50-300,50,-,300,-,-,-,-,-,-,-,-,,,,,,,,,,,
3,-,Rose Dome,-,Kansas,USA,North America,37.773,-95.754,-,-,-,>3,3,post-pennsylvanian to <300,288,320,352,-,10%,0,-,-,-,-,-,,,,,,,,,,,
3,-,Rose River,Numbulwar,-,Australia,Australia,-14.18935,135.73357,-,-,-,0.23,0.23,~Quaternary,0,-,1.8,-,stratigraphic,0,0,-,Ss,-,-,,,,,,,,,,,
3,-,Ross,-,-,Antarctica,Antarctica,-77.5,178.50,-,-,-,550,550,Oligocene,23,-,40,-,stratigraphc,buried,-,Y,-,-,-,,,,,,,,,,,
3,x,ROTCHEGDA,-,-,Russia,Asia,62.50,43.50,-,-,-,0.01,0.01,?,-,-,-,-,-,-,-,-,-,-,-,,,,,,,,,,,
3,x,RYAZAN´,-,-,Russia,Asia,54.00,40.00,-,-,-,0.02,0.02,?,-,-,-,-,-,-,-,-,-,-,-,,,,,,,,,,,
3,x,S. ATLANTIC G.A.,-,-,Argentina,South America,-,-,-,-,-,250,250,P/T event?,-,-,-,-,-,-,-,-,-,-,-,,,,,,,,,,,
3,x,S. BALKHASH LAKE,-,-,Kazakhstan,Asia,45.00,75.50,-,-,-,380,380,?,-,-,-,-,-,-,-,-,-,-,-,,,,,,,,,,,
3,-,Saal,-,-,Germany,Europe,48.88,11.95,-,-,-,1,1,?,-,-,-,-,-,-,-,-,-,-,-,,,,,,,,,,,
3,x,SAINT GEORGES BAY,-,-,Argentina,South America,-,-,-,-,-,-,-1,?,-,-,-,-,-,-,-,-,-,-,-,,,,,,,,,,,
3,-,Sakhalinka,-,-,-,NW Pacific,30.25,170.05,-,-,-,12,12,"Late Campanian to Pleistocene, possibly near Campanian/Maastrichtian boundary",0.01,70,75,-,stratigraphic,50,5900,-,"W, Sc",2900-5900,-,,,,,,,,,,,
3,x,SÄLEVÄ,-,-,Finland,Europe,63.50,27.88,-,-,-,2,2,?,-,-,-,-,-,-,-,-,-,-,-,,,,,,,,,,,
3,x,SÄLEVÄ N,-,-,Finland,Europe,63.53,25.88,-,-,-,4,4,?,-,-,-,-,-,-,-,-,-,-,-,,,,,,,,,,,
3,x,SAMBOROMBON BAY,-,-,Argentina,South America,-,-,-,-,-,-,-1,?,-,-,-,-,-,-,-,-,-,-,-,,,,,,,,,,,
3,-,San Martin,-,-,-,-,-37.98,-63.30,-,-,-,10-12,11,~1.2,-,1.2,-,-,-,0,0,-,Ss,0,-,,,,,,,,,,,
3,-,Sanar,-,Irkutsk area,Russia,Asia,60.4,106.2,-,-,-,0.05,0.05,?,-,-,-,-,-,-,-,-,-,-,-,,,,,,,,,,,
3,-,Santa Marta (= Gilbués),-,-,Brazil,South America,-10.18,-45.25,-,-,-,10,10,Carboniferous to Mesozoic,66,-,359,-,stratigraphic,0,-,N,-,-,-,,,,,,,,,,,
3,-,São Miguel do Tapuio,-,Piaui,Brazil,South America,-5.627,-41.388,-,-,-,20,20,?,-,-,-,-,-,0,-,N,-,-,-,,,,,,,,,,,
3,-,Sausthal,-,-,Germany,Europe,48.97,11.85,-,-,-,1,1,?,-,-,-,-,-,-,-,-,-,-,-,,,,,,,,,,,
3,-,Sautusjärvi,-,-,Sweden,Europe,67.9,20.9,-,-,-,10,10,Prot.,542,-,2500,-,-,-,-,-,-,-,-,,,,,,,,,,,
3,-,Savonoski,-,Alaska,USA,North America,58.53,-154.94,-,-,-,0.52,0.52,?,-,-,-,-,-,-,-,-,-,-,-,,,,,,,,,,,
3,x,SCHLITZER KAUTEN,-,-,Germany,Europe,50.62,9.58,-,-,-,0.007,0.007,?,-,-,-,-,-,-,-,-,-,-,-,,,,,,,,,,,
3,-,Seghaleh,-,-,Iran,Asia,33.3661,58.23996,-,0.2,-,0.2,0.2,<1,0,-,1,-,-,0,0,-,-,-,-,,,,,,,,,,,
3,x,SEVERO-KOUNRADSKAYA,-,-,Kazakhstan,Asia,47.15,75.23,-,-,-,15,15,?,-,-,-,-,-,-,-,-,-,-,-,,,,,,,,,,,
3,-,Shangewan,-,-,China,Asia,44.48,126.18,-,-,-,30,30,?,-,-,-,-,-,-,-,-,-,-,-,,,,,,,,,,,
3,-,Shaybah,-,Rub' al-Khali,Saudi Arabia,Asia,22,53,-,-,-,<1,1,-,-,-,-,-,-,0,0,-,-,-,-,,,,,,,,,,,
3,-,Shiva,-,western shelf ,India,Asia,19.5,71.5,-,-,-,500,500,~65,-,500,-,-,-,7000,-,Y,"I, M",-,-,,,,,,,,,,,
3,x,SILVERGROPEN,-,-,Finland,Europe,62,21.22,-,-,-,0.06,0.06,~0.0075,0.00675,0.0075,0.00825,-,10%,-,-,-,-,-,-,,,,,,,,,,,
3,-,"Skirmish, Australia",-,Western Australia,Australia,Australia,-26.442,128.458,-,-,-,6,6,<Earl.Neoprot.,-,-,1000,-,Stratigraphic,0,-,-,-,-,-,,,,,,,,,,,
3,-,Smerdyacheye Lake,-,-,Russia,Asia,-,-,-,-,-,0.35,0.35,<0.02,-,-,-,-,-,0,-,-,-,-,-,,,,,,,,,,,
3,-,Sompiojärvi,-,-,Finland,Europe,68.3,27.3,-,-,-,3,3,1770,1593,1770,1947,-,10%,-,-,-,-,-,-,,,,,,,,,,,
3,x,SOPPANANSELKÄ,-,-,Finland,Europe,66.02,27.18,-,-,-,5,5,?,-,-,-,-,-,-,-,-,-,-,-,,,,,,,,,,,
3,x,SOTKAJÄRVI,-,-,Finland,Europe,68.32,23.28,-,-,-,1.8,1.8,?,-,-,-,-,-,-,-,-,-,-,-,,,,,,,,,,,
3,-,South Libya,-,-,Libya,Africa,21.35,20.75,-,-,-,3,3,?,-,-,-,-,-,-,-,-,-,-,-,,,,,,,,,,,
3,-,Spear Creek,-,Northern Territory,Australia,Australia,-17.25,135.83,-,-,-,1.2,1.2,<488,-,-,488,-,-,-,-,-,-,-,-,,,,,,,,,,,
3,x,SPORNYI,-,-,Russia,Asia,51.80,139.00,-,-,-,-,-1,?,-,-,-,-,-,-,-,-,-,-,-,,,,,,,,,,,
3,x,SREDNEKAN,-,-,Russia,Asia,62.50,152.70,-,-,-,0.05,0.05,?,-,-,-,-,-,-,-,-,-,-,-,,,,,,,,,,,
3,-,Sredne-Uralskaya,-,-,Russia,Europe,56,56.5,-,-,-,400-550,480,Precambrian,542,-,-,-,-,buried,-,-,-,-,-,,,,,,,,,,,
3,-,St. Magnus Bay,-,Shetland Islands,Great Britain,Europe,60.39,-1.59,-,-,-,16,16,post Devonian to Pleistocene,0.0115,-,359,-,stratigraphic,0,-,-,-,-,-,,,,,,,,,,,
3,-,Stensjön,-,-,Sweden,Europe,59.3,18.4,-,-,-,0.5,0.5,?,-,-,-,-,-,-,-,-,-,-,-,,,,,,,,,,,
3,-,Stopfenheim,-,-,Germany,Europe,49.05,10.53,-,-,-,8,8,post-Jurassic,-,-,145.5,-,stratigraphic,30-Dec-99,-,-,-,-,-,,,,,,,,,,,
3,x,STORA VÄRTAN,-,-,Sweden,Europe,59.27,18.12,-,-,-,2,2,>540.0,540,-,-,-,-,-,-,-,-,-,-,,,,,,,,,,,
3,-,Stordammen,-,-,Sweden,Europe,60.1,18.3,-,-,-,4.5,4.5,?,-,-,-,-,-,-,-,-,-,-,-,,,,,,,,,,,
3,x,STURGUT,-,-,Russia,Asia,61.20,73.60,-,-,-,0.05,0.05,?,-,-,-,-,-,-,-,-,-,-,-,,,,,,,,,,,
3,-,Styran,-,-,Sweden,Europe,59.1,18.0,-,-,-,1.5,1.5,?,-,-,-,-,-,-,-,-,-,-,-,,,,,,,,,,,
3,-,Suavjärvi,-,Karelia,Russia,Europe,63.14,33.37,-,-,-,17,17,2300-2500,2300,-,2500,-,stratigraphic,0-some,0,-,"I, M",-,-,,,,,,,,,,,
3,-,Sucy-an-Brie,-,-,France,Europe,48.93,2.5,-,-,-,-,-1,?,-,-,-,-,-,-,-,-,-,-,-,,,,,,,,,,,
3,x,SUURIJÄRVI,-,-,Finland,Europe,62.47,29.08,-,-,-,2.7,2.7,?,-,-,-,-,-,-,-,-,-,-,-,,,,,,,,,,,
3,-,Svetlojar,-,-,Russia,Asia,56.81775,45.09558,-,-,-,0.210x0.175,190,0.00263,0.00252,0.00263,0.00274,0.00011,C14,0,-,-,-,-,-,,,,,,,,,,,
3,x,SVYATOE OZERO,-,-,Russia,Asia,55.80,38.50,-,-,-,0.1,0.1,?,-,-,-,-,-,-,-,-,-,-,-,,,,,,,,,,,
3,x,SYM,-,-,Russia,Asia,60.40,88.40,-,-,-,0.08,0.08,?,-,-,-,-,-,-,-,-,-,-,-,,,,,,,,,,,
3,x,SYNSIÄNLAHTI,-,-,Finland,Europe,61.97,25.78,-,-,-,3.5,3.5,?,-,-,-,-,-,-,-,-,-,-,-,,,,,,,,,,,
3,-,Szilvágy-Patkó (Horseshoe),-,Zala County,Hungary,Europe,46.7218,16.6381,-,-,-,0.5,0.5,Quaternary,0.0015,-,1.8,-,-,0,-,Y,-,-,-,,,,,,,,,,,
3,x,TAGIL,-,-,Russia,Asia,57.80,60.00,-,-,-,0.25,0.25,?,-,-,-,-,-,-,-,-,-,-,-,,,,,,,,,,,
3,x,TÄHTINIEMI,-,-,Finland,Europe,61.85,26.78,-,-,-,6.0 <,6,1890,1701,1890,2079,-,10%,-,-,-,-,-,-,,,,,,,,,,,
3,x,Takamatsu,-,-,Japan,Asia,34.43,134.08,-,-,-,4,4,15.3,13.77,15.3,16.83,-,10%,0,-,-,-,-,-,,,,,,,,,,,
3,x,TALKUDUKSK,-,-,Kazakhstan,Asia,46.40,73.17,-,-,-,0.5,0.5,?,-,-,-,-,-,-,-,-,-,-,-,,,,,,,,,,,
3,-,Tännäs,-,-,Sweden,Europe,62.4,12.7,-,-,-,0.02,0.02,<1.8,-,-,1.8,-,-,-,-,-,-,-,-,,,,,,,,,,,
3,-,Tâterât,-,-,Greenland,Europe,67.80,53.41,-,-,-,-,-1,Precambrian,542,-,3140,-,"radiometric, stratigraphic",0,0,-,M,-,-,,,,,,,,,,,
3,x,TENGIZ,-,-,Kazakhstan,Asia,52.00,70.00,-,-,-,350,350,?,-,-,-,-,-,-,-,-,-,-,-,,,,,,,,,,,
3,-,Terhazza,-,-,Mali,Africa,23.1370,-6.1796,-,-,-,1,1,Phanerozoic,0,-,542,-,-,0,0,-,-,-,-,,,,,,,,,,,
3,x,TIBESTI,-,-,Chad,Africa,21.50,17.50,-,-,-,18,18,?,-,-,-,-,-,-,-,-,-,-,-,,,,,,,,,,,
3,-,Tierra del Fuego,-,offshore,-,South America,-56.50,-64.50,-,-,-,-,-1,?,-,-,-,-,-,-,-,-,-,-,-,,,,,,,,,,,
3,x,TIILIKKAJOKI,-,-,Finland,Europe,63.62,28.18,-,-,-,13,13,?,-,-,-,-,-,-,-,-,-,-,-,,,,,,,,,,,
3,x,TIKSI,-,-,Russia,Asia,71.70,128.40,-,-,-,0.1,0.1,?,-,-,-,-,-,-,-,-,-,-,-,,,,,,,,,,,
3,x,TINDOUF,-,-,Morocco,Africa,-,-,-,-,-,3,3,?,-,-,-,-,-,-,-,-,-,-,-,,,,,,,,,,,
3,-,Tjegelvas,-,-,Sweden,Europe,66.5,17.0,-,-,-,3.5,3.5,?,-,-,-,-,-,-,-,-,-,-,-,,,,,,,,,,,
3,x,TOBYS´,-,-,Russia,Asia,63.30,53.10,-,-,-,0.05,0.05,?,-,-,-,-,-,-,-,-,-,-,-,,,,,,,,,,,
3,-,Tondihaud ,Ilumetsä,-,Estonia,Europe,57.960,27.386,-,-,-,0.02,0.02,0.0059-0.0067,0.0059,-,0.0067,0.0001,"stratigraphic, C14",0,0,Y,Ss,0,-,,,,,,,,,,,
3,x,TONLE SAP (see Qui Nhon),-,-,Cambodia,Asia,12.80,104.12,-,-,-,35x100,67.5,?,-,-,-,-,-,-,-,-,-,-,-,,,,,,,,,,,
3,-,Tore,-,offshore,Portugal,Europe,39.4,-12.9,-,-,-,120,120,82-119,82,91,119,-,stratigraphic,buried,-,-,-,-,-,,,,,,,,,,,
3,-,Tortkulskaya,-,-,Russia,Asia,-,-,-,-,-,1.7,1.7,?,-,-,-,-,-,-,-,-,-,-,-,,,,,,,,,,,
3,-,Trafalgar Bay,-,Ontario,Canada,North America,48.32,-90.65,-,-,-,-,-1,?,-,-,-,-,-,0,-,-,-,-,-,,,,,,,,,,,
3,-,Transylvania-Henderson structure ,-,North Carolina,USA,North America,35.3,-82.62,-,-,-,30,30,pre-Cretaceous and post mid-Permian.,146,-,260,-,-,-,-,-,-,-,-,,,,,,,,,,,
3,x,TSEPOCHKINO,-,-,Russia,Asia,57.20,50.00,-,-,-,0.08,0.08,?,-,-,-,-,-,-,-,-,-,-,-,,,,,,,,,,,
3,-,Tunis,-,Makhar city,Tunis,Africa,35.75,9.13,-,-,-,5,5,?,-,-,-,-,-,-,-,-,-,-,-,,,,,,,,,,,
3,-,Tverdovo,-,-,Russia,Europe,53.20,34.70,-,-,-,0.1,0.1,?,-,-,-,-,-,0,-,-,-,-,-,,,,,,,,,,,
3,x,TYUPTYALIR,-,-,Russia,Asia,69.90,124.90,-,-,-,0.3,0.3,?,-,-,-,-,-,-,-,-,-,-,-,,,,,,,,,,,
3,-,Ubatuba,-,-,Brazil,South America,-23.31,-44.90,-,-,-,1,1,?,-,-,-,-,-,-,-,-,-,-,-,,,,,,,,,,,
3,-,Uijongbu,-,-,South Korea,Asia,37.82,127.05,-,-,-,13,13,~165 or less,-,-,165,-,-,0,0,-,I,-,-,,,,,,,,,,,
3,x,UKONSELKÄ,-,-,Finland,Europe,62.13,24.47,-,-,-,3.5,3.5,?,-,-,-,-,-,-,-,-,-,-,-,,,,,,,,,,,
3,-,Umm al Binni,-,-,Iraq,Asia,31.242,47.105,-,-,-,3.4,3.4,<5 ka,-,-,0.005,-,stratigraphic,0,0,-,Ss,-,-,,,,,,,,,,,
3,-,Unden,-,-,Sweden,Europe,58.8,14.4,-,-,-,9,9,?,-,-,-,-,-,-,-,-,-,-,-,,,,,,,,,,,
3,-,unnamed,-,-,Democratic Republic of Congo,Africa,-10.8959,24.6529,-,-,-,0.34,0.34,?,-,-,-,-,-,0,-,-,-,-,-,,,,,,,,,,,
3,-,unnamed,-,-,Iraq,Asia,-,-,-,-,-,115,15,pre-Silurian,444,-,-,-,stratigraphic,0,-,N,-,-,-,,,,,,,,,,,
3,-,unnamed,-,-,Pacific Ocean,North America,-,-,-,-,-,-,-1,?,-,-,-,-,-,-,-,-,-,-,-,,,,,,,,,,,
3,-,unnamed,-,Quebec,Canada,North America,50.08,-74.12,-,-,-,-,-1,Archean-Proterozoic,542,-,-,-,-,-,-,-,-,-,-,,,,,,,,,,,
3,-,unnamed,-,-,Saudi Arabia,Asia,22.3,38.3,-,-,-,15,15,?,-,-,-,-,-,-,-,-,-,-,-,,,,,,,,,,,
3,-,unnamed,-,-,Democratic Republic of Congo,Africa,-10.8893,24.6472,-,-,-,0.35,0.35,?,-,-,-,-,-,0,-,-,-,-,-,,,,,,,,,,,
3,-,unnamed,-,-,Democratic Republic of Congo,Africa,-10.9336,24.6653,-,-,-,0.55,0.55,?,-,-,-,-,-,0,-,-,-,-,-,,,,,,,,,,,
3,-,unnamed,-,offshore,Namibia,Africa,-17.3641,11.1765,-,-,-,20x30,25,Aptian-Albian,99,-,125,-,seismic stratigraphc,buried,-,N,-,-,-,,,,,,,,,,,
3,-,unnamed,-,-,Colombia,South America,3.7,-70.47,-,-,-,35,35,?,-,-,-,-,-,0,-,-,-,-,-,,,,,,,,,,,
3,-,unnamed,-,-,Colombia,South America,3.00,-70.45,-,-,-,45,45,?,-,-,-,-,-,0,-,-,-,-,-,,,,,,,,,,,
3,-,unnamed,-,Nunavut,Canada,North America,67.40,-117.48,-,-,-,50,50,?,-,-,-,-,-,0,-,-,-,-,-,,,,,,,,,,,
3,-,"unnamed (21.353, 9.145)",-,-,Niger,Africa,21.353,9.145,-,-,-,9x10.5,10,-,-,-,-,-,-,0,0,-,-,-,-,,,,,,,,,,,
3,-,"unnamed (-23.0050, 127.8787)",-,Western Australia,Australia,Australia,-23.0050,127.8787,-,0.23x0.28,-,0.23x0.28,0.25,?,-,-,-,-,-,0,0,-,-,-,-,,,,,,,,,,,
3,-,"unnamed (35.020, 65.085)",-,Ghowr,Afghanistan,Asia,35.020,65.085,-,16,-,16,16,?,-,-,-,-,-,0,0,-,-,-,-,,,,,,,,,,,
3,-,"unnamed (42.923, -71.558)",-,Vermont,USA,North America,42.922702,-71.557983,-,0.3,-,0.3,0.3,?,-,-,-,-,-,0,0,-,-,-,-,,,,,,,,,,,
3,-,"unnamed (56.21, -139.26)",-,-,-,Pacific Ocean,56.21,-139.26,-,5,-,19.5,19.5,<10,0,-,10,-,stratigraphic,0,3000,-,Ss,3000,-,,,,,,,,,,,
3,-,"Unnamed -10.2127, -61.3802",-,Rondônia,Brazil,South America,-10.2127,-61.3802,-,-,-,4.5,4.5,-,-,-,-,-,-,-,-,-,-,-,-,,,,,,,,,,,
3,-,"Unnamed 43.22824, 54.42441",-,-,Kazakhstan,Asia,43.22824,54.42441,-,-,-,1.3,1.3,-,-,-,-,-,-,-,-,-,-,-,-,,,,,,,,,,,
3,-,"Unnamed 44.923, 52.367",-,Caspian Sea,Kazakhstan,Asia,44.923,52.367,-,-,-,26,26,-,-,-,-,-,-,-,-,-,-,-,-,,,,,,,,,,,
3,x,UNNAMED LAKE,-,-,Canada,North America,64.97,-87.68,-,-,-,-,-1,?,-,-,-,-,-,-,-,-,-,-,-,,,,,,,,,,,
3,-,Uppland,-,-,Sweden,Europe,60.0,17.0,-,-,-,320,320,1800-1500,1500,-,1800,-,-,-,-,-,-,-,-,,,,,,,,,,,
3,-,Urengoy,-,-,Russia,Asia,66.273,78.444,-,-,-,4.5,4.5,Eocene-Pleistocene,0.0115,-,55.8,-,stratigraphic,0,0,Y,Ss,-,-,,,,,,,,,,,
3,x,UST´-OZERNYI,-,-,Russia,Asia,58.90,87.70,-,-,-,0.07,0.07,?,-,-,-,-,-,-,-,-,-,-,-,,,,,,,,,,,
3,x,UST´-VIKHOREVO,-,-,Russia,Asia,56.70,101.40,-,-,-,0.01,0.01,?,-,-,-,-,-,-,-,-,-,-,-,,,,,,,,,,,
3,x,UZHUR,-,-,Russia,Asia,55.20,90.30,-,-,-,-,-1,?,-,-,-,-,-,-,-,-,-,-,-,,,,,,,,,,,
3,x,VAHVAJÄRVI,-,-,Finland,Europe,61.65,26.68,-,-,-,7.5,7.5,?,-,-,-,-,-,-,-,-,-,-,-,,,,,,,,,,,
3,x,VALAAM,-,-,Russia,Asia,61.37,31.05,-,-,-,7,7,?,-,-,-,-,-,-,-,-,-,-,-,,,,,,,,,,,
3,x,VALGA,-,-,Estonia / Latvia,Europe,-,-,-,-,-,200,200,?,-,-,-,-,-,-,-,-,-,-,-,,,,,,,,,,,
3,-,Vara,-,-,Sweden,Europe,58.4,13.0,-,-,-,30,30,?,-,-,-,-,-,-,-,-,-,-,-,,,,,,,,,,,
3,x,VASIKKASELKÄ,-,-,Finland,Europe,69.12,28.23,-,-,-,9.5,9.5,?,-,-,-,-,-,-,-,-,-,-,-,,,,,,,,,,,
3,-,Västlandsjön,-,-,Sweden,Europe,59.7,16.0,-,-,-,3,3,?,-,-,-,-,-,-,-,-,-,-,-,,,,,,,,,,,
3,-,Vernon,-,-,Australia,Australia,-,-,-,-,-,-,-1,<299,-,-,299,-,-,-,-,-,-,-,-,,,,,,,,,,,
3,x,VIINIJÄRVI,-,-,Finland,Europe,62.73,29.30,-,-,-,19.0 <,19,2500,2250,2500,2750,-,10%,-,-,-,-,-,-,,,,,,,,,,,
3,x,VINOGRADOVO,-,-,Russia,Asia,55.50,38.00,-,-,-,0.15,0.15,?,-,-,-,-,-,-,-,-,-,-,-,,,,,,,,,,,
3,x,VIRMASVESI,-,-,Finland,Europe,62.83,26.90,-,-,-,12,12,?,-,-,-,-,-,-,-,-,-,-,-,,,,,,,,,,,
3,x,VITIM,-,-,Russia,Asia,53.50,112.50,-,-,-,0.2,0.2,?,-,-,-,-,-,-,-,-,-,-,-,,,,,,,,,,,
3,x,VOSTOCHNOYE,-,-,Russia,Asia,53.50,68.20,-,-,-,0.2,0.2,?,-,-,-,-,-,-,-,-,-,-,-,,,,,,,,,,,
3,x,VOYEVODSKOYE,-,-,Russia,Asia,53.80,85.60,-,-,-,0.04,0.04,?,-,-,-,-,-,-,-,-,-,-,-,,,,,,,,,,,
3,x,VUOTJÄRVI,-,-,Finland,Europe,63.13,28.32,-,-,-,10,10,?,-,-,-,-,-,-,-,-,-,-,-,,,,,,,,,,,
3,-,Warren,-,Michigan,USA,North America,43.73,-84.50,-,-,-,39,39,395,355.5,395,434.5,-,10%,-,-,Y,-,-,-,,,,,,,,,,,
3,-,Wasita,-,-,Yemen,Asia,14.900,44.215,-,-,-,14,14,?,-,-,-,-,-,0,0,-,-,-,-,,,,,,,,,,,
3,x,WAYOMBO,-,-,Surinam,South America,5.42,-56.08,-,-,-,none?,-1,?,-,-,-,-,-,-,-,-,-,-,-,,,,,,,,,,,
3,x,WEDDELL SEA,-,-,Antarctica,Antarctica,-,-,-,-,-,-,-1,?,-,-,-,-,-,-,-,-,-,-,-,,,,,,,,,,,
3,-,Wedowee,-,Alabama,USA,North America,33.38855,-85.46945,-,-,-,100x150,130,Quaternary,-,-,1.8,-,-,0,0,-,-,-,-,,,,,,,,,,,
3,-,Wessel,-,-,Australia,Australia,-20.60,135.08,-,-,-,2.5,2.5,<Paleoproteroz.,-,-,2500,-,-,-,-,-,-,-,-,,,,,,,,,,,
3,-,White Cliffs,-,New South Wales,Australia,Australia,-30.7849,143.1453,-,-,-,1.7,1.7,-,-,-,-,-,-,0,0,-,-,-,-,,,,,,,,,,,
3,-,Wilbarger,-,Texas,USA,North America,33.8845,-99.2079,-,-,-,4.5-6,5.25,post Carboniferous,-,-,299,-,stratigraphic,0,-,Y,Ssc,-,-,,,,,,,,,,,
3,-,Wilkes Land 2,-,-,Antarctica,Antarctica,-70.0,140.0,-,-,-,480,480,~250,100,250,2500,-,-,buried,-,-,-,-,-,,,,,,,,,,,
3,-,Willenhofen,Willenhofen,-,Germany,Europe,49.13,11.70,-,-,-,2,-1,?,-,-,-,-,-,0,-,-,-,-,-,,,,,,,,,,,
3,-,X-SAR 1,-,-,Libya,Africa,31.325,15.672,-,-,-,16.74,16.74,<100,-,-,100,-,-,0,-,-,-,-,-,,,,,,,,,,,
3,x,X-SAR 10,-,Manitoba,Canada,North America,54.82,-100.37,-,-,-,4.395,4.395,<250,-,-,250,-,-,-,-,-,-,-,-,,,,,,,,,,,
3,x,X-SAR 12A,-,-,Egypt,Africa,22.87,27.10,-,-,-,3.951,3.951,<10,-,-,10,-,-,-,-,-,-,-,-,,,,,,,,,,,
3,x,X-SAR 12B,-,-,Egypt,Africa,22.88,27.00,-,-,-,2.446,2.446,<10,-,-,10,-,-,-,-,-,-,-,-,,,,,,,,,,,
3,x,X-SAR 12C,-,-,Egypt,Africa,22.87,27.08,-,-,-,0.753,0.753,<10,-,-,10,-,-,-,-,-,-,-,-,,,,,,,,,,,
3,x,X-SAR 12D,-,-,Egypt,Africa,22.88,27.08,-,-,-,1.317,1.317,<10,-,-,10,-,-,-,-,-,-,-,-,,,,,,,,,,,
3,x,X-SAR 12E,-,-,Egypt,Africa,22.88,27.08,-,-,-,1.129,1.129,<10,-,-,10,-,-,-,-,-,-,-,-,,,,,,,,,,,
3,x,X-SAR 13,-,Manitoba,Canada,North America,49.78,-96.43,-,-,-,5.741,5.741,<5,-,-,5,-,-,-,-,-,-,-,-,,,,,,,,,,,
3,x,X-SAR 15,-,-,Bangladesh,Asia,21.48,92.07,-,-,-,4.142,4.142,<50,-,-,50,-,-,-,-,-,-,-,-,,,,,,,,,,,
3,-,X-SAR 17,-,Manitoba,Canada,North America,59.064,-97.549,-,-,-,1.6,1.6,<50,-,-,50,-,-,0,-,-,-,-,-,,,,,,,,,,,
3,x,X-SAR 18,-,Manitoba,Canada,North America,54.77,-99.65,-,-,-,0.95,0.95,<10,-,-,10,-,-,-,-,-,-,-,-,,,,,,,,,,,
3,x,X-SAR 19,-,Manitoba,Canada,North America,54.57,-99.93,-,-,-,1.237,1.237,<10,-,-,10,-,-,-,-,-,-,-,-,,,,,,,,,,,
3,x,X-SAR 2,-,-,Sudan,Africa,17.12,33.97,-,-,-,60.3,60.3,<100,-,-,100,-,-,-,-,-,-,-,-,,,,,,,,,,,
3,x,X-SAR 20,-,Saskatchewan,Canada,North America,55.87,-107.78,-,-,-,0.575,0.575,<10,-,-,10,-,-,-,-,-,-,-,-,,,,,,,,,,,
3,x,X-SAR 21,-,Saskatchewan,Canada,North America,55.85,-107.98,-,-,-,1.341,1.341,<10,-,-,10,-,-,-,-,-,-,-,-,,,,,,,,,,,
3,x,X-SAR 22,-,Manitoba,Canada,North America,49.83,-95.65,-,-,-,5.741,5.741,<50,-,-,50,-,-,-,-,-,-,-,-,,,,,,,,,,,
3,x,X-SAR 23,-,Manitoba,Canada,North America,58.60,-101.45,-,-,-,2.121,2.121,<250,-,-,250,-,-,-,-,-,-,-,-,,,,,,,,,,,
3,x,X-SAR 24A,-,Chubut,Argentina,South America,-42.28,-67.93,-,-,-,3.657,3.657,<25,-,-,25,-,-,-,-,-,-,-,-,,,,,,,,,,,
3,x,X-SAR 24B,-,Chubut,Argentina,South America,-42.28,-67.98,-,-,-,2.063,2.063,<25,-,-,25,-,-,-,-,-,-,-,-,,,,,,,,,,,
3,x,X-SAR 25,-,-,Iran,Asia,37.95,55.33,-,-,-,4.5,4.5,<10,-,-,10,-,-,-,-,-,-,-,-,,,,,,,,,,,
3,x,X-SAR 26A,-,Patagonia,Argentina,South America,-50.83,-70.63,-,-,-,3,3,<5,-,-,5,-,-,-,-,-,-,-,-,,,,,,,,,,,
3,x,X-SAR 26B,-,Patagonia,Argentina,South America,-50.75,-70.72,-,-,-,0.9,0.9,<5,-,-,5,-,-,-,-,-,-,-,-,,,,,,,,,,,
3,x,X-SAR 26C,-,Patagonia,Argentina,South America,-50.78,-70.83,-,-,-,1.3,1.3,<5,-,-,5,-,-,-,-,-,-,-,-,,,,,,,,,,,
3,x,X-SAR 27,-,Ontario,Canada,North America,50.83,-93.47,-,-,-,7.2,7.2,<250,-,-,250,-,-,-,-,-,-,-,-,,,,,,,,,,,
3,x,X-SAR 28,-,Saskatchewan,Canada,North America,56.57,-110.57,-,-,-,7.5,7.5,250,225,250,275,-,10%,-,-,-,-,-,-,,,,,,,,,,,
3,x,X-SAR 29,-,Saskatchewan,Canada,North America,56.58,-111.05,-,-,-,1.4,1.4,<10,-,-,10,-,-,-,-,-,-,-,-,,,,,,,,,,,
3,x,X-SAR 3,-,-,Sudan,Africa,18.93,32.75,-,-,-,0.9,0.9,<1,-,-,1,-,-,-,-,-,-,-,-,,,,,,,,,,,
3,x,X-SAR 30,-,Alberta,Canada,North America,56.38,-115.38,-,-,-,5.7,5.7,<10,-,-,10,-,-,-,-,-,-,-,-,,,,,,,,,,,
3,x,X-SAR 31,-,Alberta,Canada,North America,56.42,-114.67,-,-,-,3,3,<25,-,-,25,-,-,-,-,-,-,-,-,,,,,,,,,,,
3,x,X-SAR 4,-,-,Madagascar,Africa,-21.37,46.63,-,-,-,0.855,0.855,<10,-,-,10,-,-,-,-,-,-,-,-,,,,,,,,,,,
3,x,X-SAR 5,-,-,Madagascar,Africa,-21.08,46.78,-,-,-,2.47,2.47,<10,-,-,10,-,-,-,-,-,-,-,-,,,,,,,,,,,
3,x,X-SAR 6A,-,Bulgan,Mongolia,Asia,48.63,104.30,-,-,-,2.576,2.576,<10,-,-,10,-,-,-,-,-,-,-,-,,,,,,,,,,,
3,x,X-SAR 6B,-,Bulgan,Mongolia,Asia,48.63,104.25,-,-,-,2.48,2.48,<10,-,-,10,-,-,-,-,-,-,-,-,,,,,,,,,,,
3,x,X-SAR 7A,-,-,Mauritania,Africa,19.38,-13.78,-,-,-,1.315,1.315,<10,-,-,10,-,-,-,-,-,-,-,-,,,,,,,,,,,
3,x,X-SAR 7B,-,-,Mauritania,Africa,19.33,-13.77,-,-,-,1.878,1.878,<10,-,-,10,-,-,-,-,-,-,-,-,,,,,,,,,,,
3,x,X-SAR 9A,-,Manitoba,Canada,North America,58.93,-99.30,-,-,-,3.798,3.798,>250,250,-,-,-,-,-,-,-,-,-,-,,,,,,,,,,,
3,x,X-SAR 9B,-,Manitoba,Canada,North America,58.93,-99.43,-,-,-,2.468,2.468,?,-,-,-,-,-,-,-,-,-,-,-,,,,,,,,,,,
3,-,Yardymly,-,-,Russia,Asia,-,-,-,-,-,0.002,0.002,0.00002,-,-,-,-,-,-,-,-,-,-,-,,,,,,,,,,,
3,-,Yarrawirrie,-,-,Australia,Australia,-14.0525,135.5985,-,-,-,~2.8,2.8,~Cenozoic,0,-,65,-,stratigraphic,0,0,-,Ss,-,-,,,,,,,,,,,
3,-,Yenisei,-,-,Russia,Asia,59,93.15,-,-,-,0.225,0.225,< 1,-,-,1,-,-,-,-,-,-,-,-,,,,,,,,,,,
3,x,ZAMOSC,-,-,Poland,Europe,-,-,-,-,-,-,-1,?,-,-,-,-,-,-,-,-,-,-,-,,,,,,,,,,,
3,x,ZAPADNO-AKKUDUKSK,-,-,Kazakhstan,Asia,47.10,73.68,-,-,-,18,18,?,-,-,-,-,-,-,-,-,-,-,-,,,,,,,,,,,
3,x,ZAPADNO-KARKARALINSK,-,-,Kazakhstan,Asia,49.42,75.00,-,-,-,0.2,0.2,?,-,-,-,-,-,-,-,-,-,-,-,,,,,,,,,,,
3,x,ZHUAN-TOBE,-,-,Kazakhstan,Asia,47.80,73.85,-,-,-,15,15,?,-,-,-,-,-,-,-,-,-,-,-,,,,,,,,,,,
4,-,Abimily,-,Northern Territory,Australia,Australia,-24.40,133.28,-,-,-,1.5,1.5,-,-,-,-,-,-,-,-,-,-,-,-,,,,,,,,,,,
4,-,Ahlshausen,-,-,Germany,Europe,51.798,9.981,-,3.60,-,3.6,3.6,?,-,-,-,-,-,0,0,-,-,-,-,,,,,,,,,,,
4,-,Arkenu 1,-,-,Libya,Africa,22.100,23.795,-,-,-,6.8,6.8,<140,-,-,140,-,stratigraphic,0,0,N,Ss,-,-,,,,,,,,,,,
4,-,Arkenu 2,-,-,Libya,Africa,22.053,23.718,-,-,-,10,10,<140,-,-,140,-,stratigraphic,0,0,N,Ss,-,-,,,,,,,,,,,
4,-,Bangui,-,-,-,Africa,6.0,18.3,-,-,-,810,810,E. Precamb,542,-,-,-,-,-,-,-,-,-,-,,,,,,,,,,,
4,-,Bender,-,Montana,USA,North America,47.845,-108.592,-,-,-,4,4,Tertiary,1.8,-,65.5,-,stratigraphic,-,0,-,I,-,-,,,,,,,,,,,
4,-,Big Yoeman,-,Missouri,USA,North America,36.9306,-92.1428,-,-,-,-,-1,?,-,-,-,-,-,0,-,-,-,-,-,,,,,,,,,,,
4,-,Blue Buck,-,Missouri,USA,North America,36.9524,-92.1112,-,-,-,-,-1,?,-,-,-,-,-,0,-,-,-,-,-,,,,,,,,,,,
4,-,Bushveld,-,-,South Africa,Africa,-25.00,29.00,-,-,-,-,-1,2050-2060,2050,-,2060,-,duration of igneous activity,0,-,-,-,-,-,,,,,,,,,,,
4,-,Charron Lake,-,-,Canada,North America,52.74,-95.25,-,-,-,6,6,<2445 ± 70,-,-,2515,-,stratigraphic,0,-,-,-,-,-,,,,,,,,,,,
4,-,Dyestone Mt.,-,Missouri,USA,North America,36.9571,-92.0928,-,-,-,-,-1,?,-,-,-,-,-,0,-,-,-,-,-,,,,,,,,,,,
4,-,Gorski kotar,-,-,Croatia,Europe,45.36,14.70,-,-,-,20-50,35,-,-,-,-,-,-,0,0,Y,-,-,-,,,,,,,,,,,
4,-,Hudson Bay,-,-,Canada,North America,57.90,-80.03,-,-,-,230,440,>1850,1850,-,-,-,-,0,-,-,-,-,-,,,,,,,,,,,
4,-,Kebira,-,-,Libya/Egypt,Africa,24.677,24.970,-,-,-,27x30,28.5,?,-,-,-,-,-,0,-,-,-,-,-,,,,,,,,,,,
4,-,La Fossa,La Fossa,Umbria,Italy,Europe,42.67361,12.67667,-,-,-,220x310,280,Quaternary,0,-,1.8,-,stratigraphic,0,0,-,-,-,-,,,,,,,,,,,
4,-,Luobusa,-,Tibet,China,Asia,29.235,92.195,-,-,-,-,-1,126-5.3,5.3,-,126,-,stratigraphic,0,0,-,I,-,-,,,,,,,,,,,
4,-,Mendorf,-,-,Germany,Europe,48.88,11.60,-,-,-,2.5,2.5,?,-,-,-,-,-,0,-,-,-,-,-,,,,,,,,,,,
4,-,Nichols Knob,-,Missouri,USA,North America,36.9016,-92.149,-,-,-,-,-1,?,-,-,-,-,-,0,-,-,-,-,-,,,,,,,,,,,
4,-,Oun,-,Borkou-Ennedi-Tibesti,Chad,Africa,21.741,19.345,-,-,-,9,9,?,-,-,-,-,-,0,-,-,-,-,-,,,,,,,,,,,
4,-,Pantasma,-,-,Nicaragua,North America,13.37,-85.95,-,-,-,14,14,-,-,-,-,-,-,0,0,-,-,-,-,,,,,,,,,,,
4,-,Rio Cuarto D,-,-,Argentina,South America,-,-,-,-,-,3.5x0.7,2.1,0.01,0.009,0.01,0.011,-,10%,-,-,-,-,-,-,,,,,,,,,,,
4,-,Rio Cuarto E,-,-,Argentina,South America,-,-,-,-,-,3.5x0.7,2.1,0.01,0.009,0.01,0.011,-,10%,-,-,-,-,-,-,,,,,,,,,,,
4,-,Semsiat,-,-,Mauritani,Africa,21.015,-11.833,-,-,-,5,5,?,-,-,-,-,-,0,-,-,-,-,-,,,,,,,,,,,
4,-,St. Imier,-,-,Switzerland,Europe,47.1653,7.0004,-,-,-,0.4,0.4,?,-,-,-,-,-,-,-,-,-,-,-,,,,,,,,,,,
4,-,"unnamed (-15.1523, 12.3660)",-,-,Angola,Africa,-15.1523,12.3660,-,2 to 3,-,2 to 3,2 to 3,?,-,-,-,-,-,-,-,-,-,-,-,,,,,,,,,,,
4,-,"unnamed (22.9943, 12.6313)",-,-,Niger,Africa,22.9943,12.6313,-,0.8,-,0.8,0.8,Cretaceous or younger,0,-,145.5,-,-,-,-,-,-,-,-,,,,,,,,,,,
4,-,"unnamed (25.856, 0.582)",-,-,-,Africa,25.856,0.582,-,-,-,6.5,6.5,-,-,-,-,-,-,0,0,-,-,-,-,,,,,,,,,,,
4,-,"unnamed (34.879, 65.354)",-,Ghowr,Afghanistan,Asia,34.879,65.354,-,12 to 16,-,12 to 16,14,-,-,-,-,-,-,0,0,-,-,-,-,,,,,,,,,,,
4,-,"unnamed (42.209, 107.835)",-,-,China,Asia,42.209,107.835,-,-,-,3,3,-,-,-,-,-,-,0,0,-,-,-,-,,,,,,,,,,,
4,-,"Unnamed -14.427595, 14.05912",-,Lubango,Angola,Africa,-14.427595,14.059120,-,-,-,0.8,0.8,-,-,-,-,-,-,-,-,-,-,-,-,,,,,,,,,,,
4,-,"Unnamed 15.6528, 44.6978",-,Sana´a,Yemen,Arabian subcontinent,15.6528,44.6978,-,-,-,2,2,-,-,-,-,-,-,-,-,-,-,-,-,,,,,,,,,,,
4,-,"Unnamed 32.0203, 65.3599",-,Khakriz Mountains,Afghanistan,Asia,32.0203,65.3599,-,-,-,5.32 x 4.34,4.80,-,-,-,-,-,-,-,-,-,-,-,-,,,,,,,,,,,
4,-,Uri,-,Borkou-Ennedi-Tibesti,Chad,Africa,21.288,19.343,-,-,-,5,5,?,-,-,-,-,-,0,-,-,-,-,-,,,,,,,,,,,
5,-,Aflou (= D'Aflow),-,-,Algeria,Africa,34.000,2.045,-,-,-,3x5,4,Upper Tertiary,1.8,-,23,-,stratigraphic,0,-,-,-,-,-,,,,,,,,,,,
5,x,ÄNGSKÄRFJÄRDEN,-,-,Finland,Europe,60.47,21.00,-,-,-,6.5,6.5,1770-1800,1770,-,1800,-,-,-,-,-,-,-,-,,,,,,,,,,,
5,-,Arianna,-,Bolivar,Venezuela,South America,4.28,-63.39,-,-,-,43x70,50,-,-,-,-,-,-,-,-,-,-,-,-,,,,,,,,,,,
5,-,BASS STRAIT,-,-,Australia,Australia,-40.00,146.00,-,-,-,-,-1,?,-,-,-,-,-,-,-,-,-,-,-,,,,,,,,,,,
5,-,Bay of Campeche,-,-,Mexico,North America,21.0,-93.5,-,-,-,-,-1,-,-,-,-,-,-,-,-,Y,-,-,-,,,,,,,,,,,
5,-,Bermud,-,-,-,North America,31,-65,-,-,-,2500,2500,0.012,-,-,-,-,-,-,-,-,-,-,-,,,,,,,,,,,
5,-,Big Basin,-,Kansas,USA,North America,37.240,-99.997,-,-,-,1.6,1.6,a few ka,-,-,0.01,-,-,-,-,-,-,-,-,,,,,,,,,,,
5,x,BISHOFTU,-,-,Ethiopia,Africa,8.75,39.00,-,-,-,-,-1,?,-,-,-,-,-,-,-,-,-,-,-,,,,,,,,,,,
5,-,Buenos Aires,-,-,Argentina,South America,-,-,-,-,-,15,15,10.1 ± 0.4,-,-,-,-,-,-,-,-,-,-,-,,,,,,,,,,,
5,-,Carolina Bays,-,-,USA,North America,-,-,-,-,-,0.2-9,-1,0.07-0.12,0.07,-,0.12,-,Luminescence,0,-,-,-,-,-,,,,,,,,,,,
5,-,Chapadmalal,-,-,Argentina,South America,-,-,-,-,-,29,29,3.3,-,-,-,-,-,-,-,-,-,-,-,,,,,,,,,,,
5,x,COLLUMA,-,-,Bolivia,South America,-18.53,-68.50,-,-,-,-,-1,?,-,-,-,-,-,-,-,-,-,-,-,,,,,,,,,,,
5,x,CONFOLENT,-,-,France,Europe,-,-,-,-,-,-,-1,?,-,-,-,-,-,-,-,-,-,-,-,,,,,,,,,,,
5,-,Crestone,-,Colorado,USA,North America,37.90,-105.65,-,-,-,108x75,90,1930 AD - Holocene,0.000075,-,0.0115,-,stratigraphic,0,-,-,-,-,-,,,,,,,,,,,
5,-,Dampier,-,Western Australia,Australia,Australia,-,-,-,-,-,-,-1,?,-,-,-,-,-,-,-,-,-,-,-,,,,,,,,,,,
5,x,DUCKWATER,-,-,USA,North America,38.70,-115.70,-,-,-,0.075,0.075,?,-,-,-,-,-,-,-,-,-,-,-,,,,,,,,,,,
5,-,El Mouilah,-,-,Algeria,Africa,33.877,2.048,-,-,-,4x5,4.5,?,-,-,-,-,-,0,-,-,-,-,-,,,,,,,,,,,
5,-,El-Baz,-,-,Egypt,Africa,24.2155,26.3995,-,-,-,3.8-4.2,4,post Lower Cretaceous,0,-,145,-,stratigraphic,0,-,N,Ss,-,-,,,,,,,,,,,
5,x,ELEGANTE,-,-,Mexico,North America,32.67,-112.92,-,-,-,-,-1,?,-,-,-,-,-,-,-,-,-,-,-,,,,,,,,,,,
5,-,Elko,Elko,Nevada,USA,North America,41.067,-115.910,-,-,-,0.25,0.25,0.006 - 0.02,0.006,-,0.02,-,stratigraphic,0,-,-,-,-,-,,,,,,,,,,,
5,-,Ellef Ringnes,-,Franklin District,Canada,North America,78.50,-102.50,-,-,-,-,-1,?,-,-,-,-,-,0,-,-,-,-,-,,,,,,,,,,,
5,-,El-Mrayer,-,-,Mauritania,Africa,22.5,-7.2,-,-,-,2,2,Phanerozoic,-,-,542,-,-,0,-,-,-,-,-,,,,,,,,,,,
5,x,EYRE PENINSULA,-,-,Australia,Australia,-34.00,136.00,-,-,-,-,-1,?,-,-,-,-,-,-,-,-,-,-,-,,,,,,,,,,,
5,-,Fiery Creek,-,Queensland,Australia,Australia,-19.22,139.22,-,-,-,30,30,?,-,-,-,-,-,-,-,-,-,-,-,,,,,,,,,,,
5,-,Fikes,-,Alaska,USA,North America,60.65,-147.80,-,-,-,760,760,?,-,-,-,-,-,0,-,-,-,-,-,,,,,,,,,,,
5,-,Fohn,-,-,Timor Sea,Asia,11.00334,127.14557,-,-,-,4.8,4.8,24.6 - 36,24.6,-,36,-,-,buried,-,-,-,-,-,,,,,,,,,,,
5,-,Foum Teguentour,-,-,Algeria,Africa,26.243,2.951,-,-,-,8,8,post Devonian,-,-,359,-,stratigraphic,0,-,-,-,-,-,,,,,,,,,,,
5,-,Franktown,-,Ontario,Canada,North America,45.05,-76.07,-,-,-,-,-1,?,-,-,-,-,-,0,-,Y,-,-,-,,,,,,,,,,,
5,-,Grendel ,-,offshore south Norway,Norway,Europe,58.16,5.86,-,-,-,18,18,?,-,-,-,-,-,-,-,-,-,-,-,,,,,,,,,,,
5,-,Gulf of St. Lawrence,-,-,Canada,North America,47.10,-63.05,-,-,-,290,290,?,-,-,-,-,-,-,-,-,-,-,-,,,,,,,,,,,
5,x,GWARKUH,-,-,Iran,Asia,28.50,60.67,-,-,-,0.045,0.045,?,-,-,-,-,-,-,-,-,-,-,-,,,,,,,,,,,
5,-,Habhab (=Oman ring),-,-,Oman,Asia,19.87,56.93,-,-,-,6,6,?,-,-,-,-,-,0,0,-,-,-,-,,,,,,,,,,,
5,x,HÉRAULT,-,-,France,Europe,43.53,3.13,-,-,-,0.22,0.22,?,-,-,-,-,-,-,-,-,-,-,-,,,,,,,,,,,
5,x,HUNGARUAN PLAIN,-,-,Hungary,Europe,47.00,21.00,-,-,-,-,-1,?,-,-,-,-,-,-,-,-,-,-,-,,,,,,,,,,,
5,-,Köfels,-,-,Austria,Europe,47.115,10.925,-,-,-,4,4,0.0098 ± .0001,0.0097,0.0098,0.0099,0.0001,-,0,-,-,-,-,-,,,,,,,,,,,
5,-,Lac St. Jean,-,Quebec,Canada,North America,-,-,-,-,-,-,-1,?,-,-,-,-,-,0,-,-,-,-,-,,,,,,,,,,,
5,-,Laguna Guatavita,-,-,Colombia,South America,4.98,-73.78,-,-,-,0.7,0.7,?,-,-,-,-,-,0,-,-,-,-,-,,,,,,,,,,,
5,-,Lake Constance (= Bodensee),-,-,"Switzerland, Germany, Austria",Europe,47.58,9.42,-,-,-,n/a,-1,Late Pleistocene,0.01,-,0.024,-,-,0,-,-,-,-,-,,,,,,,,,,,
5,x,LAKE ST. JOHN,-,-,Canada,North America,48.62,-72.00,-,-,-,-,-1,?,-,-,-,-,-,-,-,-,-,-,-,,,,,,,,,,,
5,-,Lanai,-,"Hawaii, ",USA,North America,20.905,-156.887,-,-,-,-,-1,?,-,-,-,-,-,-,-,-,-,-,-,,,,,,,,,,,
5,x,LESSER ANTILLES,-,-,West Indies,Asia,-,-,-,-,-,950,0.55,?,-,-,-,-,-,-,-,-,-,-,-,,,,,,,,,,,
5,x,LIBYAN DESERT CRATERS,-,-,Libya,Africa,22.30,25.50,-,-,-,0.8,0.8,?,-,-,-,-,-,-,-,-,-,-,-,,,,,,,,,,,
5,x,LUONTERI,-,-,Finland,Europe,61.58,27.85,-,-,-,10,10,?,-,-,-,-,-,-,-,-,-,-,-,,,,,,,,,,,
5,-,Macamic Lake,-,Quebec,Canada,North America,48.87,-79.02,-,-,-,1.6,1.6,?,-,-,-,-,-,0,-,-,-,-,-,,,,,,,,,,,
5,x,MALHA,-,-,Sudan,Africa,15.10,26.25,-,-,-,-,-1,?,-,-,-,-,-,-,-,-,-,-,-,,,,,,,,,,,
5,-,Mazoula,-,-,Algeria,Africa,28.3779,7.2085,-,-,-,0.8,0.8,?,-,-,-,-,-,0,-,-,-,-,-,,,,,,,,,,,
5,-,Mecatina,-,Quebec,Canada,North America,50.83,-59.37,-,-,-,3.2,3.2,?,-,-,-,-,-,0,-,-,-,-,-,,,,,,,,,,,
5,-,Melville Islands,-,Franklin District,Canada,North America,76.67,-109.00,-,-,-,-,-1,?,-,-,-,-,-,0,-,-,-,-,-,,,,,,,,,,,
5,-,Menihek Lake East,-,Quebec,Canada,North America,53.70,-66.67,-,-,-,4.8,4.8,?,-,-,-,-,-,-,-,-,-,-,-,,,,,,,,,,,
5,-,Menihek Lake West,-,Quebec,Canada,North America,54.32,-67.17,-,-,-,4,4,?,-,-,-,-,-,0,-,-,-,-,-,,,,,,,,,,,
5,-,Meteor Strike,-,Maputaland,South Africa,Africa,-26.943,32.783,-,-,-,0.65x0.170,0.1,holocene,0,-,0.01,-,-,0,-,-,-,-,-,,,,,,,,,,,
5,-,Michikamau,-,Quebec,Canada,North America,54.57,-64.45,-,-,-,5.6,5.6,?,-,-,-,-,-,-,-,-,-,-,-,,,,,,,,,,,
5,x,NEBIEWALE CALDERA,-,-,Ghana,Africa,10.58,-1.67,-,-,-,-,-1,?,-,-,-,-,-,-,-,-,-,-,-,,,,,,,,,,,
5,-,Ngoro-Ngoro,-,-,Tansania,Africa,-3,36.5,-,-,-,25,25,?,-,-,-,-,-,0,-,-,-,-,-,,,,,,,,,,,
5,x,NORTH CASPIAN SEA,-,-,Kazaks,Asia,44.00,53.00,-,-,-,800,800,?,-,-,-,-,-,-,-,-,-,-,-,,,,,,,,,,,
5,-,Nyika,-,-,Malawi,Africa,-10.5533,33.7953,-,-,-,NA,-1,23-Apr-60,-,-,-,-,-,0,-,N,-,-,-,,,,,,,,,,,
5,-,Ontong Java Plateau,-,-,Pacific,Asia,0,163,-,-,-,hundreds,-1,~120,108,120,132,-,10%,-,-,-,-,-,-,,,,,,,,,,,
5,-,Panamint,-,California,USA,North America,36.09714,-117.37441,-,-,-,0.07,0.07,>1947 to several thousands,-,-,-,-,"stratigraphic, historic",0,-,Y,-,-,-,,,,,,,,,,,
5,-,Parry Sound,-,Ontario,Canada,North America,45.3750,-79.9278,-,-,-,2x2.4,2.2,pre-Holocene,0.0115,-,-,-,stratigraphy,0,-,-,-,-,-,,,,,,,,,,,
5,-,Patom,-,-,Russia,Asia,59.00,116.42,-,-,-,0.09,0.09,?,-,-,-,-,-,-,-,-,-,-,-,,,,,,,,,,,
5,-,Pawtuckaway ,-,New Hampshire,USA,North America,43.111,-71.189,-,-,-,2.5,2.5,100-150,100,-,150,-,-,0,0,-,-,-,-,,,,,,,,,,,
5,-,Pippingara,-,Western Australia,Australia,Australia,-,-,-,-,-,-,-1,?,-,-,-,-,-,-,-,-,-,-,-,,,,,,,,,,,
5,-,Puffin,-,"Bonaparte Basin, Timor Sea",Australia,Australia,-12.2,124.2,-,-,-,2.2-1.7,1.95,15 ±2,12,15,17,2,stratigraphic,buried,-,N,-,-,-,,,,,,,,,,,
5,x,RANDECKER MAAR,-,-,Germany,Europe,-,-,-,-,-,-,-1,?,-,-,-,-,-,-,-,-,-,-,-,,,,,,,,,,,
5,-,Richat,-,-,Mauritania,Africa,21.125,-11.400,-,-,-,40x50,45,Cretaceous,65,-,145,-,-,0,-,-,-,-,-,,,,,,,,,,,
5,-,Sault au Cochons,-,Quebec,Canada,North America,49.28,-70.50,-,-,-,-,-1,?,-,-,-,-,-,-,-,-,-,-,-,,,,,,,,,,,
5,x,SEA OF JAPAN,-,-,Asia,Asia,39.60,139.70,-,-,-,-,-1,?,-,-,-,-,-,-,-,-,-,-,-,,,,,,,,,,,
5,-,Ševětín,-,southern Bohemia,Czech Republic,Europe,49.08,14.58,-,-,-,46,46,277-228,228,-,277,-,-,-,-,-,-,-,-,,,,,,,,,,,
5,-,Sušice,-,southern Bohemia,Czech Republic,Europe,49.23,13.53,-,-,-,50,50,?,-,-,-,-,-,-,-,-,-,-,-,,,,,,,,,,,
5,x,SWAN VALLEY,-,-,USA,North America,-,-,-,-,-,0.08,0.08,?,-,-,-,-,-,-,-,-,-,-,-,,,,,,,,,,,
5,-,Tarek (GKCF59),Gilf Kebir,-,Egypt,Africa,24.59806,27.20500,-,-,-,2.12,2.12,Albian to Lower Oligocene,28,-,112,-,-,0,0,N,Ss,-,-,,,,,,,,,,,
5,-,Tepexitl,-,-,Mexico,North America,19.22,-97.43,-,-,-,1.2,1.2,?,-,-,-,-,-,0,-,-,-,-,-,,,,,,,,,,,
5,x,TIFFIN,-,-,USA,North America,41.80,-91.67,-,-,-,0.03,0.03,?,-,-,-,-,-,-,-,-,-,-,-,,,,,,,,,,,
5,x,UBEHEBE,-,-,USA,North America,36.98,-117.53,-,-,-,0.07,0.07,?,-,-,-,-,-,-,-,-,-,-,-,,,,,,,,,,,
5,x,UDJEI BOWL,-,-,Russia,Asia,53.75,93.17,-,-,-,-,-1,?,-,-,-,-,-,-,-,-,-,-,-,,,,,,,,,,,
5,-,"unnamed (-13.540, 35.326)",-,-,Mozambique,Africa,-13.540,35.326,-,11,-,11,11,?,-,-,-,-,-,-,-,-,-,-,-,,,,,,,,,,,
5,-,"unnamed (-13.759, 35.414)",-,-,Mozambique,Africa,-13.759,35.414,-,7.5,-,7.5,7.5,?,-,-,-,-,-,-,-,-,-,-,-,,,,,,,,,,,
5,-,"unnamed (18.053, 33.500)",-,Nile,Sudan,Africa,18.053,33.500,-,13,-,13,13,?,-,-,-,-,-,-,-,-,-,-,-,,,,,,,,,,,
5,-,"unnamed (18.388, 20.056)",-,-,Chad,Africa,18.388,20.056,-,-,-,1.9,1.9,-,-,-,-,-,-,0,0,-,-,-,-,,,,,,,,,,,
